{"version": 0.6, "generator": "Overpass API 0.7.62.8 e802775f", "osm3s": {"timestamp_osm_base": "2025-12-03T20:32:45Z", "copyright": "The data included in this document is from www.openstreetmap.org. The data is made available under ODbL."}, "elements": [{"type": "node", "id": 16050231, "lat": 45.7405673, "lon": 4.8190408, "tags": {"name": "H\u00f4tel de R\u00e9gion Montrochet", "network": "TCL", "network:wikidata": "Q8700", "operator": "Keolis Lyon", "operator:wikidata": "Q61456136", "public_transport": "stop_position", "railway": "tram_stop", "tram": "yes", "wheelchair": "yes"}}, {"type": "node", "id": 16050263, "lat": 45.7549452, "lon": 4.8425387, "tags": {"bench": "yes", "name": "Guilloti\u00e8re", "network": "TCL", "network:wikidata": "Q8700", "operator": "Keolis Lyon", "operator:wikidata": "Q61456136", "public_transport": "stop_position", "railway": "tram_stop", "shelter": "yes", "tram": "yes", "wheelchair": "yes"}}, {"type": "node", "id": 16050441, "lat": 45.7436641, "lon": 4.8468802, "tags": {"name": "Garibaldi Berthelot", "network": "TCL", "network:wikidata": "Q8700", "operator": "Keolis Lyon", "operator:wikidata": "Q61456136", "public_transport": "stop_position", "railway": "tram_stop", "tram": "yes", "wheelchair": "yes"}}, {"type": "node", "id": 33062372, "lat": 45.7606742, "lon": 4.8538132, "tags": {"name": "Part-Dieu - Auditorium", "network": "TCL", "network:wikidata": "Q8700", "operator": "Keolis Lyon", "operator:wikidata": "Q61456136", "public_transport": "stop_position", "railway": "tram_stop", "tram": "yes", "wheelchair": "yes"}}, {"type": "node", "id": 33062706, "lat": 45.7603239, "lon": 4.8483963, "tags": {"name": "Palais de Justice - Mairie du 3e", "network": "TCL", "network:wikidata": "Q8700", "operator": "Keolis Lyon", "operator:wikidata": "Q61456136", "public_transport": "stop_position", "railway": "tram_stop", "tram": "yes", "wheelchair": "yes"}}, {"type": "node", "id": 33062707, "lat": 45.7601118, "lon": 4.8452808, "tags": {"name": "Saxe-Pr\u00e9fecture", "network": "TCL", "network:wikidata": "Q8700", "operator": "Keolis Lyon", "operator:wikidata": "Q61456136", "public_transport": "stop_position", "railway": "tram_stop", "tram": "yes", "wheelchair": "yes"}}, {"type": "node", "id": 33062708, "lat": 45.758858, "lon": 4.8424556, "tags": {"bench": "yes", "name": "Libert\u00e9", "network": "TCL", "network:wikidata": "Q8700", "operator": "Keolis Lyon", "operator:wikidata": "Q61456136", "public_transport": "stop_position", "railway": "tram_stop", "shelter": "yes", "tram": "yes", "wheelchair": "yes"}}, {"type": "node", "id": 33064206, "lat": 45.7528829, "lon": 4.8410584, "tags": {"name": "Saint-Andr\u00e9", "network": "TCL", "network:wikidata": "Q8700", "operator": "Keolis Lyon", "operator:wikidata": "Q61456136", "public_transport": "stop_position", "railway": "tram_stop", "tram": "yes", "wheelchair": "yes"}}, {"type": "node", "id": 33064207, "lat": 45.7496772, "lon": 4.8353169, "tags": {"name": "Quai Claude Bernard", "network": "TCL", "network:wikidata": "Q8700", "operator": "Keolis Lyon", "operator:wikidata": "Q61456136", "public_transport": "stop_position", "railway": "tram_stop", "tram": "yes", "wheelchair": "yes"}}, {"type": "node", "id": 33064208, "lat": 45.7470663, "lon": 4.8245818, "tags": {"name": "Place des Archives", "network": "TCL", "network:wikidata": "Q8700", "operator": "Keolis Lyon", "operator:wikidata": "Q61456136", "public_transport": "stop_position", "railway": "tram_stop", "tram": "yes", "wheelchair": "yes"}}, {"type": "node", "id": 33065114, "lat": 45.7421032, "lon": 4.8517674, "tags": {"name": "Route de Vienne", "network": "TCL", "network:wikidata": "Q8700", "operator": "Keolis Lyon", "operator:wikidata": "Q61456136", "public_transport": "stop_position", "railway": "tram_stop", "tram": "yes", "wheelchair": "yes"}}, {"type": "node", "id": 47996326, "lat": 45.74703, "lon": 4.8363374, "tags": {"name": "Centre Berthelot - Sciences Po Lyon", "network": "TCL", "network:wikidata": "Q8700", "operator": "Keolis Lyon", "operator:wikidata": "Q61456136", "public_transport": "stop_position", "railway": "tram_stop", "tram": "yes", "wheelchair": "yes"}}, {"type": "node", "id": 47997320, "lat": 45.7451296, "lon": 4.8422859, "tags": {"name": "Jean Mac\u00e9", "network": "TCL", "network:wikidata": "Q8700", "operator": "Keolis Lyon", "operator:wikidata": "Q61456136", "public_transport": "stop_position", "railway": "tram_stop", "tram": "yes", "wheelchair": "yes"}}, {"type": "node", "id": 1977648751, "lat": 45.7470571, "lon": 4.8363525, "tags": {"name": "Centre Berthelot - Sciences Po Lyon", "network": "TCL", "network:wikidata": "Q8700", "operator": "Keolis Lyon", "operator:wikidata": "Q61456136", "public_transport": "stop_position", "railway": "tram_stop", "source": "cadastre-dgi-fr source : Direction G\u00e9n\u00e9rale des Imp\u00f4ts - Cadastre. Mise \u00e0 jour : 2012", "tram": "yes", "wheelchair": "yes"}}, {"type": "node", "id": 1977648752, "lat": 45.7436882, "lon": 4.8468949, "tags": {"name": "Garibaldi Berthelot", "network": "TCL", "network:wikidata": "Q8700", "operator": "Keolis Lyon", "operator:wikidata": "Q61456136", "public_transport": "stop_position", "railway": "tram_stop", "source": "cadastre-dgi-fr source : Direction G\u00e9n\u00e9rale des Imp\u00f4ts - Cadastre. Mise \u00e0 jour : 2012", "tram": "yes", "wheelchair": "yes"}}, {"type": "node", "id": 1977648753, "lat": 45.7451542, "lon": 4.8422975, "tags": {"name": "Jean Mac\u00e9", "network": "TCL", "network:wikidata": "Q8700", "operator": "Keolis Lyon", "operator:wikidata": "Q61456136", "public_transport": "stop_position", "railway": "tram_stop", "source": "cadastre-dgi-fr source : Direction G\u00e9n\u00e9rale des Imp\u00f4ts - Cadastre. Mise \u00e0 jour : 2012", "tram": "yes", "wheelchair": "yes"}}, {"type": "node", "id": 1977648754, "lat": 45.742127, "lon": 4.8517781, "tags": {"name": "Route de Vienne", "network": "TCL", "network:wikidata": "Q8700", "operator": "Keolis Lyon", "operator:wikidata": "Q61456136", "public_transport": "stop_position", "railway": "tram_stop", "source": "cadastre-dgi-fr source : Direction G\u00e9n\u00e9rale des Imp\u00f4ts - Cadastre. Mise \u00e0 jour : 2012", "tram": "yes", "wheelchair": "yes"}}, {"type": "node", "id": 1977891492, "lat": 45.7549145, "lon": 4.8424764, "tags": {"bench": "yes", "name": "Guilloti\u00e8re", "network": "TCL", "network:wikidata": "Q8700", "operator": "Keolis Lyon", "operator:wikidata": "Q61456136", "public_transport": "stop_position", "railway": "tram_stop", "shelter": "yes", "source": "cadastre-dgi-fr source : Direction G\u00e9n\u00e9rale des Imp\u00f4ts - Cadastre. Mise \u00e0 jour : 2012", "tram": "yes", "wheelchair": "yes"}}, {"type": "node", "id": 1977891493, "lat": 45.7588575, "lon": 4.8424196, "tags": {"bench": "yes", "name": "Libert\u00e9", "network": "TCL", "network:wikidata": "Q8700", "operator": "Keolis Lyon", "operator:wikidata": "Q61456136", "public_transport": "stop_position", "railway": "tram_stop", "shelter": "yes", "source": "cadastre-dgi-fr source : Direction G\u00e9n\u00e9rale des Imp\u00f4ts - Cadastre. Mise \u00e0 jour : 2012", "tram": "yes", "wheelchair": "yes"}}, {"type": "node", "id": 1977891494, "lat": 45.7603515, "lon": 4.8483927, "tags": {"name": "Palais de Justice - Mairie du 3e", "network": "TCL", "network:wikidata": "Q8700", "operator": "Keolis Lyon", "operator:wikidata": "Q61456136", "public_transport": "stop_position", "railway": "tram_stop", "source": "cadastre-dgi-fr source : Direction G\u00e9n\u00e9rale des Imp\u00f4ts - Cadastre. Mise \u00e0 jour : 2012", "tram": "yes", "wheelchair": "yes"}}, {"type": "node", "id": 1977891495, "lat": 45.7607292, "lon": 4.8538018, "tags": {"name": "Part-Dieu - Auditorium", "network": "TCL", "network:wikidata": "Q8700", "operator": "Keolis Lyon", "operator:wikidata": "Q61456136", "public_transport": "stop_position", "railway": "tram_stop", "source": "cadastre-dgi-fr source : Direction G\u00e9n\u00e9rale des Imp\u00f4ts - Cadastre. Mise \u00e0 jour : 2012", "tram": "yes", "wheelchair": "yes"}}, {"type": "node", "id": 1977891496, "lat": 45.7495762, "lon": 4.8351996, "tags": {"name": "Quai Claude Bernard", "network": "TCL", "network:wikidata": "Q8700", "operator": "Keolis Lyon", "operator:wikidata": "Q61456136", "public_transport": "stop_position", "railway": "tram_stop", "source": "cadastre-dgi-fr source : Direction G\u00e9n\u00e9rale des Imp\u00f4ts - Cadastre. Mise \u00e0 jour : 2012", "tram": "yes", "wheelchair": "yes"}}, {"type": "node", "id": 1977891498, "lat": 45.7528923, "lon": 4.8410239, "tags": {"name": "Saint-Andr\u00e9", "network": "TCL", "network:wikidata": "Q8700", "operator": "Keolis Lyon", "operator:wikidata": "Q61456136", "public_transport": "stop_position", "railway": "tram_stop", "source": "cadastre-dgi-fr source : Direction G\u00e9n\u00e9rale des Imp\u00f4ts - Cadastre. Mise \u00e0 jour : 2012", "tram": "yes", "wheelchair": "yes"}}, {"type": "node", "id": 1977891499, "lat": 45.7601369, "lon": 4.8452789, "tags": {"name": "Saxe-Pr\u00e9fecture", "network": "TCL", "network:wikidata": "Q8700", "operator": "Keolis Lyon", "operator:wikidata": "Q61456136", "public_transport": "stop_position", "railway": "tram_stop", "source": "cadastre-dgi-fr source : Direction G\u00e9n\u00e9rale des Imp\u00f4ts - Cadastre. Mise \u00e0 jour : 2012", "tram": "yes", "wheelchair": "yes"}}, {"type": "node", "id": 1977987854, "lat": 45.7405804, "lon": 4.8190096, "tags": {"name": "H\u00f4tel de R\u00e9gion Montrochet", "network": "TCL", "network:wikidata": "Q8700", "operator": "Keolis Lyon", "operator:wikidata": "Q61456136", "public_transport": "stop_position", "railway": "tram_stop", "source": "cadastre-dgi-fr source : Direction G\u00e9n\u00e9rale des Imp\u00f4ts - Cadastre. Mise \u00e0 jour : 2012", "tram": "yes", "wheelchair": "yes"}}, {"type": "node", "id": 1977987872, "lat": 45.7442227, "lon": 4.8221158, "tags": {"name": "Sainte-Blandine", "network": "TCL", "network:wikidata": "Q8700", "operator": "Keolis Lyon", "operator:wikidata": "Q61456136", "public_transport": "stop_position", "railway": "tram_stop", "source": "cadastre-dgi-fr source : Direction G\u00e9n\u00e9rale des Imp\u00f4ts - Cadastre. Mise \u00e0 jour : 2012", "tram": "yes", "wheelchair": "yes"}}, {"type": "node", "id": 1977987877, "lat": 45.7470764, "lon": 4.8245458, "tags": {"name": "Place des Archives", "network": "TCL", "network:wikidata": "Q8700", "operator": "Keolis Lyon", "operator:wikidata": "Q61456136", "public_transport": "stop_position", "railway": "tram_stop", "source": "cadastre-dgi-fr source : Direction G\u00e9n\u00e9rale des Imp\u00f4ts - Cadastre. Mise \u00e0 jour : 2012", "tram": "yes", "wheelchair": "yes"}}, {"type": "node", "id": 2336249399, "lat": 45.7495322, "lon": 4.8270476, "tags": {"name": "Perrache", "network": "TCL", "network:wikidata": "Q8700", "operator": "Keolis Lyon", "operator:wikidata": "Q61456136", "public_transport": "stop_position", "railway": "tram_stop", "tram": "yes", "wheelchair": "yes", "wikidata": "Q1992", "wikipedia": "fr:Gare de Lyon-Perrache"}}, {"type": "node", "id": 2336249406, "lat": 45.7495422, "lon": 4.8270161, "tags": {"name": "Perrache", "network": "TCL", "network:wikidata": "Q8700", "operator": "Keolis Lyon", "operator:wikidata": "Q61456136", "public_transport": "stop_position", "railway": "tram_stop", "ref": "5085", "source": "cadastre-dgi-fr source : Direction G\u00e9n\u00e9rale des Imp\u00f4ts - Cadastre. Mise \u00e0 jour : 2012", "tram": "yes", "wheelchair": "yes", "wikidata": "Q1992", "wikipedia": "fr:Gare de Lyon-Perrache"}}, {"type": "node", "id": 3070792203, "lat": 45.7511473, "lon": 4.8389606, "tags": {"name": "Rue de l'Universit\u00e9", "network": "TCL", "network:wikidata": "Q8700", "operator": "Keolis Lyon", "operator:wikidata": "Q61456136", "public_transport": "stop_position", "railway": "tram_stop", "tram": "yes", "wheelchair": "yes"}}, {"type": "node", "id": 3070792204, "lat": 45.7511752, "lon": 4.838979, "tags": {"name": "Rue de l'Universit\u00e9", "network": "TCL", "network:wikidata": "Q8700", "operator": "Keolis Lyon", "operator:wikidata": "Q61456136", "public_transport": "stop_position", "railway": "tram_stop", "source": "cadastre-dgi-fr source : Direction G\u00e9n\u00e9rale des Imp\u00f4ts - Cadastre. Mise \u00e0 jour : 2012", "tram": "yes", "wheelchair": "yes"}}, {"type": "node", "id": 8788279114, "lat": 45.744203, "lon": 4.8221408, "tags": {"name": "Sainte-Blandine", "network": "TCL", "network:wikidata": "Q8700", "operator": "Keolis Lyon", "operator:wikidata": "Q61456136", "public_transport": "stop_position", "railway": "tram_stop", "source": "cadastre-dgi-fr source : Direction G\u00e9n\u00e9rale des Imp\u00f4ts - Cadastre. Mise \u00e0 jour : 2012", "tram": "yes", "wheelchair": "yes"}}]}