{"version": 0.6, "generator": "Overpass API 0.7.62.8 e802775f", "osm3s": {"timestamp_osm_base": "2025-12-04T23:52:29Z", "copyright": "The data included in this document is from www.openstreetmap.org. The data is made available under ODbL."}, "elements": [{"type": "node", "id": 16819098, "lat": 48.9284019, "lon": 2.2594248, "tags": {"bus": "yes", "public_transport": "stop_position"}}, {"type": "node", "id": 26742369, "lat": 48.9203502, "lon": 2.1854362, "tags": {"level": "0", "local_ref": "D", "name": "Houilles Carri\u00e8res-sur-Seine", "operator": "SNCF Gares & Connexions", "operator:wikidata": "Q3098278", "public_transport": "stop_position", "railway": "stop", "train": "yes", "uic_ref": "8738640", "wheelchair": "limited", "wikidata": "Q2468330", "wikipedia": "fr:Gare de Houilles - Carri\u00e8res-sur-Seine"}}, {"type": "node", "id": 26986284, "lat": 48.8826061, "lon": 2.2329351, "tags": {"level": "1", "name": "Puteaux", "network": "Transilien", "operator": "SNCF R\u00e9seau", "public_transport": "stop_position", "railway": "stop", "ref": "1", "ref:FR:uic8": "87382382", "tactile_paving": "yes", "train": "yes", "uic_name": "puteaux", "uic_ref": "8738238"}}, {"type": "node", "id": 27117113, "lat": 48.892964, "lon": 2.237891, "tags": {"STIF:zone": "3", "layer": "-1", "level": "-1", "name": "La D\u00e9fense - Grande Arche", "operator": "RATP \u00cele de France Mobilit\u00e9s", "public_transport": "stop_position", "railway": "tram_stop", "source": "RATP - 07/2012", "tram": "yes", "type:RATP": "tram", "wheelchair": "yes"}}, {"type": "node", "id": 27232842, "lat": 48.9052798, "lon": 2.2688689, "tags": {"level": "0", "local_ref": "D", "name": "B\u00e9con-les-Bruy\u00e8res", "network": "Transilien", "operator": "SNCF R\u00e9seau", "public_transport": "stop_position", "railway": "stop", "ref:FR:uic8": "87382002", "tactile_paving": "yes", "train": "yes", "uic_name": "becon-les-bruyeres", "uic_ref": "8738200"}}, {"type": "node", "id": 27336529, "lat": 48.8781499, "lon": 2.2803457, "tags": {"bus": "yes", "name": "Porte Maillot", "public_transport": "stop_position", "source": "BD Ortho IGN 2023"}}, {"type": "node", "id": 27362238, "lat": 48.8809365, "lon": 2.2722281, "tags": {"STIF:zone": "1", "alt_name": "Les Sablons (Jardin d'acclimatation)", "layer": "-2", "location": "underground", "name": "Les Sablons", "name:ru": "\u041b\u0435-\u0421\u0430\u0431\u043b\u043e\u043d", "name:zh": "\u8428\u5e03\u9686", "public_transport": "station", "railway": "station", "ref:FR:RATP": "1802", "ref:FR:STIF": "22100", "source": "STIF - 12/2016", "station": "subway", "subway": "yes", "type:RATP": "metro", "wheelchair": "yes", "wikidata": "Q649160", "wikipedia": "fr:Les Sablons (m\u00e9tro de Paris)"}}, {"type": "node", "id": 28796601, "lat": 48.8868926, "lon": 2.2000892, "tags": {"bus": "yes", "name": "Place de la Boule - Joffre", "network": "RATP", "network:wikidata": "Q474674", "operator": "RATP", "operator:wikidata": "Q643290", "public_transport": "stop_position"}}, {"type": "node", "id": 90456140, "lat": 48.9313991, "lon": 2.2607247, "tags": {"level": "1", "local_ref": "A", "name": "Le Stade", "public_transport": "stop_position", "railway": "stop", "railway:position:exact": "8.086", "train": "yes"}}, {"type": "node", "id": 90635795, "lat": 48.9468595, "lon": 2.2578738, "tags": {"level": "1", "local_ref": "22", "name": "Argenteuil", "public_transport": "stop_position", "railway": "stop", "railway:position:exact": "9.971", "train": "yes"}}, {"type": "node", "id": 90650460, "lat": 48.9405073, "lon": 2.2450615, "tags": {"bus": "yes", "name": "Charles de Gaulle - Henri Barbusse", "public_transport": "stop_position", "source": "BDOrtho IGN 2023"}}, {"type": "node", "id": 180920349, "lat": 48.8895309, "lon": 2.210531, "tags": {"bus": "yes", "name": "Le Chat Perch\u00e9", "network": "RATP", "operator": "RATP", "public_transport": "stop_position"}}, {"type": "node", "id": 231286269, "lat": 48.8851878, "lon": 2.1562173, "tags": {"name": "Chatou - Croissy", "public_transport": "stop_position", "railway": "stop", "train": "yes"}}, {"type": "node", "id": 255161921, "lat": 48.8971408, "lon": 2.2803973, "tags": {"alt_name": "Pont de Levallois-B\u00e9con", "name": "Pont de Levallois - B\u00e9con", "name:fr": "Pont de Levallois - B\u00e9con", "name:ru": "\u041f\u043e\u043d-\u0434\u0435-\u041b\u0435\u0432\u0430\u043b\u044e\u0430 - \u0411\u0435\u043a\u043e\u043d", "public_transport": "stop_position", "railway": "stop", "source": "STIF - 12/2016", "station": "subway", "subway": "yes", "wheelchair": "no"}}, {"type": "node", "id": 259474188, "lat": 48.8803974, "lon": 2.1809312, "tags": {"bus": "yes", "name": "Rueil - Ville", "public_transport": "stop_position"}}, {"type": "node", "id": 265581292, "lat": 48.945221, "lon": 2.2133493, "tags": {"bus": "yes", "crossing": "uncontrolled", "name": "Violettes", "public_transport": "stop_position"}}, {"type": "node", "id": 265635823, "lat": 48.9423007, "lon": 2.229393, "tags": {"bus": "yes", "name": "Moulin Sarrazin", "public_transport": "stop_position"}}, {"type": "node", "id": 266322231, "lat": 48.8881115, "lon": 2.173397, "tags": {"name": "Rueil-Malmaison", "public_transport": "stop_position", "railway": "stop", "train": "yes", "uic_ref": "8775805"}}, {"type": "node", "id": 267001208, "lat": 48.9341504, "lon": 2.2257333, "tags": {"bus": "yes", "name": "Marseillaise", "public_transport": "stop_position"}}, {"type": "node", "id": 274904929, "lat": 48.9097074, "lon": 2.2724485, "tags": {"bus": "yes", "name": "Chanzy", "public_transport": "stop_position"}}, {"type": "node", "id": 281027300, "lat": 48.8986664, "lon": 2.2138698, "tags": {"bus": "yes", "name": "Soufflot", "public_transport": "stop_position"}}, {"type": "node", "id": 286862676, "lat": 48.9070771, "lon": 2.1547793, "tags": {"bus": "yes", "name": "Champs Roger", "public_transport": "stop_position"}}, {"type": "node", "id": 311568951, "lat": 48.9077959, "lon": 2.1493735, "tags": {"bus": "yes", "name": "\u00c9glise (Montesson)", "public_transport": "stop_position"}}, {"type": "node", "id": 311571350, "lat": 48.9117907, "lon": 2.1532029, "tags": {"bus": "yes", "name": "Jean Mac\u00e9", "public_transport": "stop_position"}}, {"type": "node", "id": 311795752, "lat": 48.9086757, "lon": 2.158886, "tags": {"bench": "yes", "bus": "yes", "name": "Le Montoir", "public_transport": "stop_position", "shelter": "yes"}}, {"type": "node", "id": 315059834, "lat": 48.9451182, "lon": 2.1456411, "tags": {"level": "0", "local_ref": "2", "name": "Maisons-Laffitte", "public_transport": "stop_position", "railway": "stop", "train": "yes"}}, {"type": "node", "id": 315642082, "lat": 48.905491, "lon": 2.1459658, "tags": {"bus": "yes", "name": "Aristide Briand", "public_transport": "stop_position"}}, {"type": "node", "id": 316917029, "lat": 48.9052561, "lon": 2.1579342, "tags": {"bus": "yes", "name": "Europe", "public_transport": "stop_position"}}, {"type": "node", "id": 317841324, "lat": 48.9133581, "lon": 2.1719845, "tags": {"bus": "yes", "name": "Lyc\u00e9e les Pierres Vives", "public_transport": "stop_position"}}, {"type": "node", "id": 318536431, "lat": 48.8832551, "lon": 2.2338242, "tags": {"STIF:zone": "3", "name": "Puteaux", "public_transport": "stop_position", "railway": "tram_stop", "tram": "yes", "wheelchair": "yes"}}, {"type": "node", "id": 319185981, "lat": 48.8854029, "lon": 2.1558753, "tags": {"bus": "yes", "name": "Gare de Chatou - Croissy", "public_transport": "stop_position", "source": "survey"}}, {"type": "node", "id": 320760925, "lat": 48.902586, "lon": 2.1603989, "tags": {"bus": "yes", "name": "Coll\u00e8ge Auguste Renoir", "public_transport": "stop_position"}}, {"type": "node", "id": 321662267, "lat": 48.9540479, "lon": 2.184672, "tags": {"bus": "yes", "name": "Cimeti\u00e8re (Bois Rochefort)", "public_transport": "stop_position"}}, {"type": "node", "id": 330644211, "lat": 48.9203638, "lon": 2.1969637, "tags": {"bus": "yes", "name": "La Fontaine", "public_transport": "stop_position"}}, {"type": "node", "id": 366194497, "lat": 48.9051241, "lon": 2.2214895, "tags": {"bus": "yes", "name": "No\u00ebl Pons", "public_transport": "stop_position", "source": "BDOrtho IGN 2022"}}, {"type": "node", "id": 370833762, "lat": 48.887235, "lon": 2.1715571, "tags": {"name": "Rueil-Malmaison", "public_transport": "stop_position", "railway": "stop", "train": "yes", "uic_ref": "8775805"}}, {"type": "node", "id": 390351760, "lat": 48.8945595, "lon": 2.1936744, "tags": {"name": "Nanterre Ville", "public_transport": "stop_position", "railway": "stop", "train": "yes"}}, {"type": "node", "id": 415449506, "lat": 48.8870083, "lon": 2.1999501, "tags": {"bus": "yes", "name": "Place de la Boule \u2013 L\u00e9nine", "public_transport": "stop_position"}}, {"type": "node", "id": 416475257, "lat": 48.8835319, "lon": 2.2037365, "tags": {"bus": "yes", "name": "Pierre Sergent", "public_transport": "stop_position", "source": "BD Ortho IGN 2023"}}, {"type": "node", "id": 417992144, "lat": 48.952274, "lon": 2.2785864, "tags": {"bus": "yes", "name": "Belv\u00e9d\u00e8re", "public_transport": "stop_position"}}, {"type": "node", "id": 417992147, "lat": 48.9515842, "lon": 2.2778049, "tags": {"bus": "yes", "name": "Belv\u00e9d\u00e8re", "public_transport": "stop_position"}}, {"type": "node", "id": 417992153, "lat": 48.9507213, "lon": 2.2743968, "tags": {"bus": "yes", "name": "Gaston Monmousseau", "public_transport": "stop_position"}}, {"type": "node", "id": 462274194, "lat": 48.9006746, "lon": 2.1477529, "tags": {"bus": "yes", "name": "Place du Docteur Roux", "public_transport": "stop_position"}}, {"type": "node", "id": 462274198, "lat": 48.9004777, "lon": 2.1477026, "tags": {"bus": "yes", "name": "Place du Docteur Roux", "public_transport": "stop_position"}}, {"type": "node", "id": 490731144, "lat": 48.8973148, "lon": 2.2803019, "tags": {"bus": "yes", "name": "Pont de Levallois - B\u00e9con M\u00e9tro", "public_transport": "stop_position"}}, {"type": "node", "id": 549761367, "lat": 48.9446806, "lon": 2.2257536, "tags": {"bus": "yes", "name": "Rethondes", "public_transport": "stop_position"}}, {"type": "node", "id": 550116040, "lat": 48.9632685, "lon": 2.2284952, "tags": {"bus": "yes", "name": "Douce F\u00e8ve", "public_transport": "stop_position"}}, {"type": "node", "id": 551385620, "lat": 48.9624604, "lon": 2.2703352, "tags": {"bus": "yes", "name": "Jolival", "public_transport": "stop_position", "source": "BD Ortho 2024"}}, {"type": "node", "id": 582668405, "lat": 48.8956081, "lon": 2.2367394, "tags": {"bus": "yes", "name": "Faubourg de l'Arche", "public_transport": "stop_position"}}, {"type": "node", "id": 582751410, "lat": 48.8870549, "lon": 2.252343, "tags": {"bus": "yes", "name": "Pont de Neuilly - Rive Gauche", "public_transport": "stop_position", "source": "survey"}}, {"type": "node", "id": 582751452, "lat": 48.8897403, "lon": 2.2500688, "tags": {"bus": "yes", "name": "Alsace", "public_transport": "stop_position", "source": "survey"}}, {"type": "node", "id": 615036421, "lat": 48.9371787, "lon": 2.2061616, "tags": {"bus": "yes", "name": "Sacco et Vanzetti", "public_transport": "stop_position"}}, {"type": "node", "id": 616898184, "lat": 48.9314532, "lon": 2.2146026, "tags": {"bus": "yes", "name": "Parmentier", "public_transport": "stop_position"}}, {"type": "node", "id": 746861168, "lat": 48.9115853, "lon": 2.1461869, "tags": {"bus": "yes", "name": "Cimeti\u00e8re (Montesson)", "public_transport": "stop_position"}}, {"type": "node", "id": 788203265, "lat": 48.878079, "lon": 2.2798538, "tags": {"bus": "yes", "name": "Porte Maillot", "public_transport": "stop_position"}}, {"type": "node", "id": 829658230, "lat": 48.9010699, "lon": 2.2135674, "tags": {"STIF:zone": "3", "level": "-1", "local_ref": "1", "name": "Nanterre - Universit\u00e9", "network": "Transilien;RER", "operator": "SNCF Gares & Connexions", "operator:wikidata": "Q3098278", "public_transport": "stop_position", "railway": "stop", "ref:FR:RATP": "1756", "ref:SNCF": "Transilien", "ref:SNCF:Transilien": "L", "tactile_paving": "yes", "train": "yes", "type:RATP": "rer", "uic_name": "nanterre-universite", "uic_ref": "8775803; 8738631", "wheelchair": "no", "wikidata": "Q2414148", "wikipedia": "fr:Gare de Nanterre-Universit\u00e9"}}, {"type": "node", "id": 903662974, "lat": 48.9013168, "lon": 2.2134072, "tags": {"STIF:zone": "3", "level": "-1", "local_ref": "2", "name": "Nanterre - Universit\u00e9", "network": "Transilien;RER", "operator": "SNCF Gares & Connexions", "operator:wikidata": "Q3098278", "public_transport": "stop_position", "railway": "stop", "ref:FR:RATP": "1756", "ref:SNCF": "Transilien", "ref:SNCF:Transilien": "L", "tactile_paving": "yes", "train": "yes", "type:RATP": "rer", "uic_name": "nanterre-universite", "uic_ref": "8775803; 8738631", "wheelchair": "no", "wikidata": "Q2414148", "wikipedia": "fr:Gare de Nanterre-Universit\u00e9"}}, {"type": "node", "id": 903667774, "lat": 48.9012183, "lon": 2.2134672, "tags": {"STIF:zone": "3", "level": "-1", "local_ref": "C", "name": "Nanterre - Universit\u00e9", "network": "Transilien;RER", "operator": "SNCF Gares & Connexions", "operator:wikidata": "Q3098278", "public_transport": "stop_position", "railway": "stop", "ref:FR:RATP": "1756", "ref:SNCF": "Transilien", "ref:SNCF:Transilien": "L", "tactile_paving": "yes", "train": "yes", "type:RATP": "rer", "uic_name": "nanterre-universite", "uic_ref": "8775803; 8738631", "wheelchair": "no", "wikidata": "Q2414148", "wikipedia": "fr:Gare de Nanterre-Universit\u00e9"}}, {"type": "node", "id": 983862079, "lat": 48.905847, "lon": 2.1467959, "tags": {"bus": "yes", "name": "Aristide Briand", "public_transport": "stop_position"}}, {"type": "node", "id": 993843841, "lat": 48.8926889, "lon": 2.2371705, "tags": {"level": "-1", "local_ref": "3", "name": "La D\u00e9fense", "public_transport": "stop_position", "railway": "stop", "train": "yes"}}, {"type": "node", "id": 993843863, "lat": 48.8926964, "lon": 2.2371216, "tags": {"level": "-1", "local_ref": "4", "name": "La D\u00e9fense", "public_transport": "stop_position", "railway": "stop", "train": "yes"}}, {"type": "node", "id": 993843867, "lat": 48.8922003, "lon": 2.2369643, "tags": {"level": "-1", "local_ref": "1", "name": "La D\u00e9fense", "network": "Transilien", "operator": "SNCF R\u00e9seau", "public_transport": "stop_position", "railway": "stop", "railway:track_ref": "1", "ref:FR:uic8": "87382218", "tactile_paving": "no", "train": "yes", "uic_name": "la-defense", "uic_ref": "8738221"}}, {"type": "node", "id": 1001327218, "lat": 48.905793, "lon": 2.2687978, "tags": {"level": "0", "local_ref": "A", "name": "B\u00e9con-les-Bruy\u00e8res", "network": "Transilien", "operator": "SNCF R\u00e9seau", "public_transport": "stop_position", "railway": "stop", "ref:FR:uic8": "87382002", "tactile_paving": "yes", "train": "yes", "uic_name": "becon-les-bruyeres", "uic_ref": "8738200"}}, {"type": "node", "id": 1028826409, "lat": 48.8951155, "lon": 2.1926194, "tags": {"bus": "yes", "name": "Jules Quentin - Nanterre-Ville RER", "public_transport": "stop_position"}}, {"type": "node", "id": 1122799089, "lat": 48.8966203, "lon": 2.2006641, "tags": {"bus": "yes", "name": "Paul Bert", "public_transport": "stop_position"}}, {"type": "node", "id": 1252378663, "lat": 48.905607, "lon": 2.2688099, "tags": {"level": "0", "local_ref": "B", "name": "B\u00e9con-les-Bruy\u00e8res", "network": "Transilien", "operator": "SNCF R\u00e9seau", "public_transport": "stop_position", "railway": "stop", "ref:FR:uic8": "87382002", "tactile_paving": "yes", "train": "yes", "uic_name": "becon-les-bruyeres", "uic_ref": "8738200"}}, {"type": "node", "id": 1252379148, "lat": 48.9054589, "lon": 2.2687547, "tags": {"level": "0", "local_ref": "C", "name": "B\u00e9con-les-Bruy\u00e8res", "network": "Transilien", "operator": "SNCF R\u00e9seau", "public_transport": "stop_position", "railway": "stop", "ref:FR:uic8": "87382002", "tactile_paving": "yes", "train": "yes", "uic_name": "becon-les-bruyeres", "uic_ref": "8738200"}}, {"type": "node", "id": 1271557561, "lat": 48.897894, "lon": 2.279618, "tags": {"name": "Pont de Levallois", "railway": "subway_entrance", "wheelchair": "no"}}, {"type": "node", "id": 1271557567, "lat": 48.8979677, "lon": 2.2799139, "tags": {"name": "Place du Mar\u00e9chal Juin", "railway": "subway_entrance", "ref": "1", "wheelchair": "no"}}, {"type": "node", "id": 1272991492, "lat": 48.8844106, "lon": 2.256847, "tags": {"bus": "yes", "crossing": "uncontrolled", "highway": "crossing", "kerb": "lowered", "name": "Pont de Neuilly", "public_transport": "stop_position", "source": "survey", "tactile_paving": "yes"}}, {"type": "node", "id": 1298512807, "lat": 48.9264694, "lon": 2.1929918, "tags": {"bus": "yes", "name": "Les Blanches", "public_transport": "stop_position"}}, {"type": "node", "id": 1306081860, "lat": 48.9195413, "lon": 2.1868344, "tags": {"STIF:zone": "4", "level": "0", "local_ref": "B", "name": "Houilles Carri\u00e8res-sur-Seine", "operator": "SNCF Gares & Connexions", "operator:wikidata": "Q3098278", "public_transport": "stop_position", "railway": "stop", "train": "yes", "uic_ref": "8738640", "wikidata": "Q2468330", "wikipedia": "fr:Gare de Houilles - Carri\u00e8res-sur-Seine"}}, {"type": "node", "id": 1306081924, "lat": 48.9372147, "lon": 2.1581498, "tags": {"STIF:zone": "4", "level": "1", "local_ref": "2", "name": "Sartrouville", "network": "Transilien;RER", "operator": "SNCF Gares & Connexions", "operator:wikidata": "Q3098278", "public_transport": "stop_position", "railway": "stop", "ref:FR:RATP": "1700", "train": "yes", "type:RATP": "rer", "uic_name": "sartrouville", "uic_ref": "8738641", "wheelchair": "yes", "wikidata": "Q2549086", "wikipedia": "fr:Gare de Sartrouville"}}, {"type": "node", "id": 1306082360, "lat": 48.920356, "lon": 2.1855092, "tags": {"level": "0", "local_ref": "E", "name": "Houilles Carri\u00e8res-sur-Seine", "operator": "SNCF Gares & Connexions", "operator:wikidata": "Q3098278", "public_transport": "stop_position", "railway": "stop", "train": "yes", "uic_ref": "8738640", "wikidata": "Q2468330", "wikipedia": "fr:Gare de Houilles - Carri\u00e8res-sur-Seine"}}, {"type": "node", "id": 1326282139, "lat": 48.8861799, "lon": 2.2620948, "tags": {"bus": "yes", "name": "G\u00e9n\u00e9ral Gouraud", "public_transport": "stop_position"}}, {"type": "node", "id": 1358669118, "lat": 48.890797, "lon": 2.2619185, "tags": {"bus": "yes", "name": "Centre Hospitalier", "public_transport": "stop_position"}}, {"type": "node", "id": 1375609648, "lat": 48.8964295, "lon": 2.2809636, "tags": {"check_date:wheelchair": "2024-03-06", "name": "Rue Baudin", "railway": "subway_entrance", "ref": "3", "wheelchair": "no"}}, {"type": "node", "id": 1411499325, "lat": 48.9175858, "lon": 2.2247465, "tags": {"STIF:zone": "3", "name": "Parc Pierre Lagrav\u00e8re", "operator": "RATP \u00cele de France Mobilit\u00e9s", "public_transport": "stop_position", "railway": "tram_stop", "ref:FR:RATP": "445421", "source": "RATP - 07/2012", "tram": "yes", "wheelchair": "yes"}}, {"type": "node", "id": 1435522157, "lat": 48.9466069, "lon": 2.2573407, "tags": {"bus": "yes", "name": "Gare d'Argenteuil", "public_transport": "stop_position"}}, {"type": "node", "id": 1450670193, "lat": 48.8779647, "lon": 2.18224, "tags": {"bus": "yes", "name": "Mairie de Rueil", "public_transport": "stop_position", "source": "Bing"}}, {"type": "node", "id": 1450670202, "lat": 48.8782491, "lon": 2.1804266, "tags": {"bus": "yes", "name": "Mairie de Rueil-Malmaison", "network": "RATP", "operator": "RATP", "public_transport": "stop_position", "source": "Bing"}}, {"type": "node", "id": 1478222859, "lat": 48.9121501, "lon": 2.177344, "tags": {"bus": "yes", "name": "Grande Rue", "public_transport": "stop_position"}}, {"type": "node", "id": 1480511325, "lat": 48.9113279, "lon": 2.1801205, "tags": {"bus": "yes", "name": "Mar\u00e9chal Juin", "public_transport": "stop_position"}}, {"type": "node", "id": 1480558991, "lat": 48.9071375, "lon": 2.1750726, "tags": {"bus": "yes", "name": "\u00c9galit\u00e9", "public_transport": "stop_position"}}, {"type": "node", "id": 1494071330, "lat": 48.8832813, "lon": 2.2337961, "tags": {"STIF:zone": "3", "name": "Puteaux", "public_transport": "stop_position", "railway": "tram_stop", "ref:FR:RATP": "23870", "tram": "yes", "type:RATP": "tram", "wheelchair": "yes"}}, {"type": "node", "id": 1496303144, "lat": 48.896327, "lon": 2.281057, "tags": {"bicycle": "no", "check_date:wheelchair": "2024-03-06", "name": "Pont de Levallois \u2013 B\u00e9con", "note": "M\u00e9tropolitain parisien ; ligne 3.", "railway": "subway_entrance", "wheelchair": "no"}}, {"type": "node", "id": 1496303151, "lat": 48.8976712, "lon": 2.2797622, "tags": {"bicycle": "no", "name": "Pont de Levallois \u2013 B\u00e9con", "note": "M\u00e9tropolitain parisien ; ligne 3.", "railway": "subway_entrance", "wheelchair": "no"}}, {"type": "node", "id": 1496303152, "lat": 48.8978243, "lon": 2.2796818, "tags": {"name": "Rue Anatole France", "railway": "subway_entrance", "ref": "2", "wheelchair": "no"}}, {"type": "node", "id": 1497150822, "lat": 48.9229524, "lon": 2.2184044, "tags": {"bus": "yes", "name": "Pont de Bezons", "public_transport": "stop_position"}}, {"type": "node", "id": 1516967465, "lat": 48.9562045, "lon": 2.2275966, "tags": {"bus": "yes", "name": "Pierre de Coubertin", "public_transport": "stop_position", "source": "BDOrtho IGN 2023"}}, {"type": "node", "id": 1517186935, "lat": 48.9100652, "lon": 2.240827, "tags": {"level": "0", "local_ref": "C", "name": "La Garenne-Colombes", "public_transport": "stop_position", "railway": "stop", "train": "yes"}}, {"type": "node", "id": 1541593490, "lat": 48.9608909, "lon": 2.2798314, "tags": {"bus": "yes", "name": "Route de Saint-Gratien", "public_transport": "stop_position", "source": "Microsoft Bing Satellite"}}, {"type": "node", "id": 1545044391, "lat": 48.9141353, "lon": 2.27174, "tags": {"level": "-1", "local_ref": "C", "name": "Bois-Colombes", "note": "La voie C n'est pas identifiable sur le terrain (pas de panneau) mais elle existe dans les donn\u00e9es SNCF", "official_name": "BOIS COLOMBES", "operator": "SNCF Gares & Connexions", "operator:wikidata": "Q3098278", "public_transport": "stop_position", "railway": "stop", "train": "yes"}}, {"type": "node", "id": 1616972582, "lat": 48.9143955, "lon": 2.229183, "tags": {"STIF:zone": "3", "name": "Victor Basch", "public_transport": "stop_position", "railway": "tram_stop", "ref:FR:RATP": "445422", "source": "RATP - 07/2012", "tram": "yes", "wheelchair": "yes"}}, {"type": "node", "id": 1654332783, "lat": 48.8842017, "lon": 2.2343042, "tags": {"level": "1", "name": "Puteaux", "network": "Transilien", "operator": "SNCF R\u00e9seau", "public_transport": "stop_position", "railway": "stop", "ref": "2", "ref:FR:uic8": "87382382", "tactile_paving": "yes", "train": "yes", "uic_name": "puteaux", "uic_ref": "8738238"}}, {"type": "node", "id": 1668362302, "lat": 48.9550674, "lon": 2.202161, "tags": {"bus": "yes", "name": "Les Bruy\u00e8res", "public_transport": "stop_position"}}, {"type": "node", "id": 1692112510, "lat": 48.9099582, "lon": 2.2408436, "tags": {"STIF:zone": "3", "level": "0", "local_ref": "B", "name": "La Garenne-Colombes", "network": "Transilien", "operator": "SNCF Gares & Connexions", "operator:wikidata": "Q3098278", "public_transport": "stop_position", "railway": "stop", "train": "yes", "uic_name": "La-garenne-colombes", "uic_ref": "8738600", "wikidata": "Q2399131", "wikipedia": "fr:Gare de La Garenne-Colombes"}}, {"type": "node", "id": 1730998232, "lat": 48.8852103, "lon": 2.1563314, "tags": {"name": "Chatou - Croissy", "public_transport": "stop_position", "train": "yes"}}, {"type": "node", "id": 1732714618, "lat": 48.9033235, "lon": 2.2687074, "tags": {"bus": "yes", "name": "Place de Belgique", "public_transport": "stop_position"}}, {"type": "node", "id": 1741135073, "lat": 48.9056025, "lon": 2.1706089, "tags": {"bus": "yes", "name": "Bercail", "public_transport": "stop_position"}}, {"type": "node", "id": 1820540860, "lat": 48.8801198, "lon": 2.1480256, "tags": {"bench": "no", "bus": "yes", "covered": "no", "name": "La Roseraie", "public_transport": "stop_position", "shelter": "no", "source": "survey"}}, {"type": "node", "id": 1854998103, "lat": 48.9339213, "lon": 2.263723, "tags": {"bus": "yes", "name": "Pont du Chemin de Fer", "public_transport": "stop_position"}}, {"type": "node", "id": 1859547783, "lat": 48.9164769, "lon": 2.1772694, "tags": {"bus": "yes", "name": "Buzenval", "public_transport": "stop_position"}}, {"type": "node", "id": 1859547784, "lat": 48.9173136, "lon": 2.1815688, "tags": {"bus": "yes", "name": "Gandillet", "public_transport": "stop_position"}}, {"type": "node", "id": 1859547785, "lat": 48.9147244, "lon": 2.1748869, "tags": {"bus": "yes", "name": "Cerisier", "public_transport": "stop_position"}}, {"type": "node", "id": 1859547786, "lat": 48.9171911, "lon": 2.1812246, "tags": {"bus": "yes", "name": "Gandillet", "public_transport": "stop_position"}}, {"type": "node", "id": 1859547787, "lat": 48.9163691, "lon": 2.1789142, "tags": {"bus": "yes", "name": "Buzenval", "public_transport": "stop_position"}}, {"type": "node", "id": 1859560014, "lat": 48.9195682, "lon": 2.1856341, "tags": {"bus": "yes", "name": "Gare de Houilles-Carri\u00e8res", "public_transport": "stop_position"}}, {"type": "node", "id": 1859560015, "lat": 48.918927, "lon": 2.1888505, "tags": {"bus": "yes", "name": "Pasteur", "public_transport": "stop_position"}}, {"type": "node", "id": 1859642004, "lat": 48.9135913, "lon": 2.201572, "tags": {"bus": "yes", "name": "Daubigny", "public_transport": "stop_position"}}, {"type": "node", "id": 1859658981, "lat": 48.9158971, "lon": 2.2076481, "tags": {"bus": "yes", "name": "Salvador Allende", "public_transport": "stop_position"}}, {"type": "node", "id": 1859658982, "lat": 48.9157169, "lon": 2.206924, "tags": {"bus": "yes", "name": "Salvador Allende", "public_transport": "stop_position"}}, {"type": "node", "id": 1859658983, "lat": 48.9148444, "lon": 2.2035982, "tags": {"bus": "yes", "name": "La Rivi\u00e8re", "public_transport": "stop_position"}}, {"type": "node", "id": 1859658984, "lat": 48.9147381, "lon": 2.2043494, "tags": {"bus": "yes", "image": "http://storage7.openstreetcam.org/files/photo/2018/5/2/lth/1174683_e8cd7_31.jpg", "name": "La Rivi\u00e8re", "public_transport": "stop_position", "survey:date": "2018-05-02"}}, {"type": "node", "id": 1859668452, "lat": 48.9219109, "lon": 2.2123027, "tags": {"bus": "yes", "name": "Louis Rameau", "public_transport": "stop_position"}}, {"type": "node", "id": 1859668453, "lat": 48.9206172, "lon": 2.209523, "tags": {"bus": "yes", "name": "Germinal", "public_transport": "stop_position"}}, {"type": "node", "id": 1859995632, "lat": 48.9147574, "lon": 2.1713976, "tags": {"bus": "yes", "name": "Lyc\u00e9e de Carri\u00e8res-sur-Seine", "operator": "RATP", "public_transport": "stop_position"}}, {"type": "node", "id": 1860170274, "lat": 48.9180346, "lon": 2.2116394, "tags": {"bus": "yes", "name": "Marcel Paul", "public_transport": "stop_position"}}, {"type": "node", "id": 1860170278, "lat": 48.9175765, "lon": 2.2117162, "tags": {"bus": "yes", "name": "Marcel Paul", "public_transport": "stop_position"}}, {"type": "node", "id": 1861946863, "lat": 48.9174442, "lon": 2.2013486, "tags": {"bus": "yes", "name": "Colombier", "public_transport": "stop_position"}}, {"type": "node", "id": 1861946865, "lat": 48.9197439, "lon": 2.2145902, "tags": {"bus": "yes", "name": "Louis Rameau", "public_transport": "stop_position"}}, {"type": "node", "id": 1862207713, "lat": 48.9163061, "lon": 2.1726191, "tags": {"bus": "yes", "name": "Cerisier", "public_transport": "stop_position"}}, {"type": "node", "id": 1915097335, "lat": 48.9110863, "lon": 2.2335955, "tags": {"STIF:zone": "3", "name": "Jacqueline Auriol", "public_transport": "stop_position", "railway": "tram_stop", "ref:FR:RATP": "445423", "source": "RATP - 07/2012", "tram": "yes", "wheelchair": "yes"}}, {"type": "node", "id": 1930527220, "lat": 48.9209123, "lon": 2.1838696, "tags": {"STIF:zone": "4", "level": "0", "local_ref": "A", "name": "Houilles Carri\u00e8res-sur-Seine", "operator": "SNCF Gares & Connexions", "operator:wikidata": "Q3098278", "public_transport": "stop_position", "railway": "stop", "train": "yes", "uic_ref": "8738640", "wikidata": "Q2468330", "wikipedia": "fr:Gare de Houilles - Carri\u00e8res-sur-Seine"}}, {"type": "node", "id": 1930527224, "lat": 48.9383012, "lon": 2.1559129, "tags": {"STIF:zone": "4", "level": "1", "local_ref": "3", "name": "Sartrouville", "network": "Transilien;RER", "operator": "SNCF Gares & Connexions", "operator:wikidata": "Q3098278", "public_transport": "stop_position", "railway": "stop", "ref:FR:RATP": "1700", "train": "yes", "type:RATP": "rer", "uic_name": "sartrouville", "uic_ref": "8738641", "wheelchair": "yes", "wikidata": "Q2549086", "wikipedia": "fr:Gare de Sartrouville"}}, {"type": "node", "id": 1953056975, "lat": 48.8913166, "lon": 2.2390296, "tags": {"layer": "-3", "level": "-3", "location": "underground", "name": "La D\u00e9fense - Grande Arche", "network": "M\u00e9tro de Paris;RATP", "operator": "RATP", "public_transport": "stop_position", "railway": "stop", "ref": "2", "start_date": "1992-04-01", "subway": "yes"}}, {"type": "node", "id": 1987663891, "lat": 48.9467943, "lon": 2.257682, "tags": {"level": "1", "local_ref": "21", "name": "Argenteuil", "public_transport": "stop_position", "railway": "stop", "train": "yes"}}, {"type": "node", "id": 1987664608, "lat": 48.9504708, "lon": 2.2319281, "tags": {"STIF:zone": "4", "level": "0", "local_ref": "B", "name": "Val d'Argenteuil", "official_name": "VAL D'ARGENTEUIL", "operator": "SNCF Gares & Connexions", "operator:wikidata": "Q3098278", "public_transport": "stop_position", "railway": "stop", "ref:SNCF": "Transilien", "ref:SNCF:Transilien": "J", "train": "yes", "uic_ref": "8738179", "wikidata": "Q2498496", "wikipedia": "fr:Gare du Val d'Argenteuil"}}, {"type": "node", "id": 1988134579, "lat": 48.9501638, "lon": 2.2308335, "tags": {"bus": "yes", "name": "Gare du Val d'Argenteuil", "public_transport": "stop_position"}}, {"type": "node", "id": 1989562446, "lat": 48.9521076, "lon": 2.2285629, "tags": {"bus": "yes", "name": "Jean Lur\u00e7at", "public_transport": "stop_position"}}, {"type": "node", "id": 1989562471, "lat": 48.9523105, "lon": 2.2282033, "tags": {"bus": "yes", "name": "Jean Lur\u00e7at", "public_transport": "stop_position"}}, {"type": "node", "id": 1992999351, "lat": 48.9447999, "lon": 2.1809395, "tags": {"bus": "yes", "name": "Charles de Gaulle", "public_transport": "stop_position"}}, {"type": "node", "id": 1993057486, "lat": 48.9554812, "lon": 2.2235205, "tags": {"bus": "yes", "name": "Coll\u00e8ge Claude Monet", "public_transport": "stop_position", "source": "BDOrtho IGN 2023"}}, {"type": "node", "id": 2004497217, "lat": 48.9031385, "lon": 2.2395082, "tags": {"STIF:zone": "3", "name": "Les Fauvelles", "public_transport": "stop_position", "railway": "tram_stop", "ref:FR:RATP": "446344", "source": "RATP - 07/2012", "tram": "yes", "wheelchair": "yes"}}, {"type": "node", "id": 2008569473, "lat": 48.884966, "lon": 2.2592792, "tags": {"check_date:wheelchair": "2022-11-28", "name": "Avenue de Madrid", "railway": "subway_entrance", "ref": "2", "source": "survey", "wheelchair": "no"}}, {"type": "node", "id": 2008569589, "lat": 48.8848021, "lon": 2.2597823, "tags": {"name": "Avenue de Madrid", "railway": "subway_entrance", "ref": "2", "source": "survey", "wheelchair": "no"}}, {"type": "node", "id": 2008569615, "lat": 48.8850906, "lon": 2.2600386, "tags": {"check_date:wheelchair": "2024-04-27", "name": "Rue du Ch\u00e2teau", "railway": "subway_entrance", "ref": "1", "source": "survey", "wheelchair": "no"}}, {"type": "node", "id": 2010636621, "lat": 48.8841995, "lon": 2.2616567, "tags": {"name": "Rue de l'\u00c9glise", "railway": "subway_entrance", "ref": "3", "source": "survey", "wheelchair": "no"}}, {"type": "node", "id": 2012508325, "lat": 48.8970219, "lon": 2.2400494, "tags": {"name": "Faubourg de l'Arche", "public_transport": "stop_position", "railway": "tram_stop", "ref:FR:RATP": "445426", "source": "Microsoft Bing orbital imagery", "tram": "yes", "wheelchair": "yes"}}, {"type": "node", "id": 2012508329, "lat": 48.8963239, "lon": 2.240112, "tags": {"STIF:zone": "3", "name": "Faubourg de l'Arche", "public_transport": "stop_position", "railway": "tram_stop", "ref:FR:RATP": "445426", "source": "Microsoft Bing orbital imagery", "tram": "yes", "wheelchair": "yes"}}, {"type": "node", "id": 2070105383, "lat": 48.8931589, "lon": 2.2736328, "tags": {"bus": "yes", "name": "H\u00f4pital Am\u00e9ricain", "public_transport": "stop_position"}}, {"type": "node", "id": 2085531560, "lat": 48.9142611, "lon": 2.2283175, "tags": {"bus": "yes", "name": "Victor Basch", "public_transport": "stop_position"}}, {"type": "node", "id": 2147372972, "lat": 48.8799447, "lon": 2.2159145, "tags": {"bus": "yes", "name": "Romain Rolland", "network": "RATP", "operator": "RATP", "public_transport": "stop_position"}}, {"type": "node", "id": 2314738881, "lat": 48.9244091, "lon": 2.2016645, "tags": {"bus": "yes", "name": "Yser", "public_transport": "stop_position"}}, {"type": "node", "id": 2368960699, "lat": 48.8803348, "lon": 2.2446399, "tags": {"STIF:zone": "3", "bus": "yes", "name": "Godefroy", "public_transport": "stop_position", "route_ref": "175;157", "source:wheelchair": "STIF 2019-01", "wheelchair": "no"}}, {"type": "node", "id": 2379216792, "lat": 48.8918041, "lon": 2.2368966, "tags": {"bus": "yes", "name": "Grande Arche", "public_transport": "stop_position", "source": "https://www.iledefrance-mobilites.fr/wp-content/uploads/2017/07/n346d.pdf"}}, {"type": "node", "id": 2379216853, "lat": 48.8891955, "lon": 2.2453124, "tags": {"bus": "yes", "name": "Les Trois Arbres", "public_transport": "stop_position"}}, {"type": "node", "id": 2389313738, "lat": 48.9104962, "lon": 2.2343864, "tags": {"STIF:zone": "3", "name": "Jacqueline Auriol", "public_transport": "stop_position", "railway": "tram_stop", "ref:FR:RATP": "445423", "source": "RATP - 07/2012", "tram": "yes", "wheelchair": "yes"}}, {"type": "node", "id": 2389313771, "lat": 48.9136921, "lon": 2.2299614, "tags": {"STIF:zone": "3", "name": "Victor Basch", "public_transport": "stop_position", "railway": "tram_stop", "ref:FR:RATP": "445422", "source": "RATP - 07/2012", "tram": "yes", "wheelchair": "yes"}}, {"type": "node", "id": 2389313798, "lat": 48.9175596, "lon": 2.2247088, "tags": {"STIF:zone": "3", "name": "Parc Pierre Lagravere", "public_transport": "stop_position", "railway": "tram_stop", "ref:FR:RATP": "445421", "source": "RATP - 07/2012", "tram": "yes", "wheelchair": "yes"}}, {"type": "node", "id": 2389461966, "lat": 48.9074343, "lon": 2.2385424, "tags": {"STIF:zone": "3", "name": "Charlebourg", "operator": "RATP \u00cele de France Mobilit\u00e9s", "public_transport": "stop_position", "railway": "tram_stop", "source": "RATP - 07/2012", "tram": "yes", "wheelchair": "yes"}}, {"type": "node", "id": 2389461970, "lat": 48.9079818, "lon": 2.2379795, "tags": {"STIF:zone": "3", "name": "Charlebourg", "operator": "RATP \u00cele de France Mobilit\u00e9s", "public_transport": "stop_position", "railway": "tram_stop", "source": "RATP - 07/2012", "tram": "yes", "wheelchair": "yes"}}, {"type": "node", "id": 2493410467, "lat": 48.8776135, "lon": 2.2825044}, {"type": "node", "id": 2754971447, "lat": 48.9135209, "lon": 2.2583886, "tags": {"STIF:zone": "3", "level": "0", "local_ref": "B", "name": "Les Vall\u00e9es", "network": "Transilien", "operator": "SNCF Gares & Connexions", "operator:wikidata": "Q3098278", "public_transport": "stop_position", "railway": "stop", "train": "yes", "uic_name": "les-vallees", "uic_ref": "8738630", "wikidata": "Q2382862", "wikipedia": "fr:Gare des Vall\u00e9es"}}, {"type": "node", "id": 2767653709, "lat": 48.8920719, "lon": 2.2372872, "tags": {"bus": "yes", "name": "Grande Arche", "public_transport": "stop_position"}}, {"type": "node", "id": 2824591337, "lat": 48.9555043, "lon": 2.244077, "tags": {"bus": "yes", "name": "Anatole Lucas", "public_transport": "stop_position", "source": "BDOrtho IGN 2023"}}, {"type": "node", "id": 2880104588, "lat": 48.884583, "lon": 2.2602475, "tags": {"bus": "yes", "name": "Pont de Neuilly", "name:RATP": "PONT DE NEULLY-METRO", "public_transport": "stop_position"}}, {"type": "node", "id": 2884199450, "lat": 48.8854432, "lon": 2.2591728, "tags": {"bus": "yes", "name": "Pont de Neuilly", "public_transport": "stop_position", "source": "survey"}}, {"type": "node", "id": 3047740858, "lat": 48.8901377, "lon": 2.1811131, "tags": {"bus": "yes", "name": "Cit\u00e9 du Vieux Pont", "public_transport": "stop_position"}}, {"type": "node", "id": 3080573860, "lat": 48.8992561, "lon": 2.20856, "tags": {"bus": "yes", "name": "Pascal", "public_transport": "stop_position"}}, {"type": "node", "id": 3331670545, "lat": 48.9141793, "lon": 2.2718733, "tags": {"level": "-1", "local_ref": "2B", "name": "Bois-Colombes", "public_transport": "stop_position", "railway": "stop", "train": "yes"}}, {"type": "node", "id": 3331934358, "lat": 48.9238248, "lon": 2.2594753, "tags": {"level": "1", "local_ref": "B", "name": "Colombes", "public_transport": "stop_position", "railway": "stop", "train": "yes"}}, {"type": "node", "id": 3342056630, "lat": 48.9313686, "lon": 2.2609164, "tags": {"level": "1", "local_ref": "2bis", "name": "Le Stade", "public_transport": "stop_position", "railway": "stop", "railway:position:exact": "8.086", "train": "yes"}}, {"type": "node", "id": 3342057188, "lat": 48.9469266, "lon": 2.2580779, "tags": {"level": "1", "local_ref": "24", "public_transport": "stop_position", "railway": "stop", "train": "yes"}}, {"type": "node", "id": 3384036164, "lat": 48.8967664, "lon": 2.2210268, "tags": {"bus": "yes", "name": "Nanterre - Pr\u00e9fecture RER", "public_transport": "stop_position"}}, {"type": "node", "id": 3384738515, "lat": 48.9552793, "lon": 2.2170637, "tags": {"bus": "yes", "name": "Coll\u00e8ge Claude Monet", "public_transport": "stop_position"}}, {"type": "node", "id": 3385239907, "lat": 48.9315153, "lon": 2.279622, "tags": {"bus": "yes", "name": "Asni\u00e8res - 18 Juin 1940", "public_transport": "stop_position", "source": "survey 12-2017"}}, {"type": "node", "id": 3385385545, "lat": 48.9230239, "lon": 2.2512643, "tags": {"bus": "yes", "name": "\u00c9glise de Colombes", "public_transport": "stop_position"}}, {"type": "node", "id": 3390305111, "lat": 48.9248461, "lon": 2.2394919, "tags": {"bus": "yes", "direction": "backward", "name": "Europe", "public_transport": "stop_position", "source": "BDOrtho IGN 2025"}}, {"type": "node", "id": 3393838060, "lat": 48.9136668, "lon": 2.256211, "tags": {"STIF:zone": "3", "level": "0", "local_ref": "A", "name": "Les Vall\u00e9es", "network": "Transilien", "operator": "SNCF Gares & Connexions", "operator:wikidata": "Q3098278", "public_transport": "stop_position", "railway": "stop", "train": "yes", "uic_name": "les-vallees", "uic_ref": "8738630", "wikidata": "Q2382862", "wikipedia": "fr:Gare des Vall\u00e9es"}}, {"type": "node", "id": 3398755410, "lat": 48.896876, "lon": 2.2208407, "tags": {"bus": "yes", "name": "Nanterre - Pr\u00e9fecture RER", "public_transport": "stop_position"}}, {"type": "node", "id": 3400135590, "lat": 48.8968703, "lon": 2.2805419, "tags": {"STIF:zone": "3", "bench": "yes", "bin": "no", "bus": "yes", "highway": "bus_stop", "lit": "yes", "name": "Pont de Levallois - B\u00e9con M\u00e9tro", "public_transport": "platform", "ref:FR:STIF": "20439", "route_ref": "53;94;275;N52", "shelter": "yes", "source:wheelchair": "STIF 2019-01", "tactile_paving": "no", "wheelchair": "no"}}, {"type": "node", "id": 3431796387, "lat": 48.9372317, "lon": 2.1590716, "tags": {"bus": "yes", "name": "Gare de Sartrouville", "public_transport": "stop_position"}}, {"type": "node", "id": 3431796726, "lat": 48.9364538, "lon": 2.1577744, "tags": {"bus": "yes", "public_transport": "stop_position"}}, {"type": "node", "id": 3431820557, "lat": 48.9374875, "lon": 2.1568974, "tags": {"bus": "yes", "public_transport": "stop_position"}}, {"type": "node", "id": 3480033236, "lat": 48.8873896, "lon": 2.1726977, "tags": {"bus": "yes", "name": "Rueil-Malmaison RER", "network": "RATP", "operator": "RATP", "public_transport": "stop_position"}}, {"type": "node", "id": 3480033237, "lat": 48.887034, "lon": 2.1714651, "tags": {"bus": "yes", "name": "Rueil-Malmaison RER", "public_transport": "stop_position"}}, {"type": "node", "id": 3480033238, "lat": 48.8871642, "lon": 2.1718563, "tags": {"bus": "yes", "name": "Rueil-Malmaison RER", "public_transport": "stop_position"}}, {"type": "node", "id": 3586000197, "lat": 48.8922478, "lon": 2.2369184, "tags": {"STIF:zone": "3", "alt_name": "LA DEFENSE GRANDE ARCHE", "name": "La D\u00e9fense - Grande Arche", "name:es": "Estaci\u00f3n de La D\u00e9fense", "name:zh": "\u62c9\u5fb7\u82b3\u65af-\u65b0\u51ef\u65cb\u95e8", "network": "M\u00e9tro de Paris;RER;Tramway d'\u00cele de France;Transilien", "note": "Please do not add the tag public_transport=station, it is already on the way that defines the footprint of the station", "note:fr": "Pas de gare, mais un guichet dans la Grande Salle d'\u00e9change", "official_name": "La D\u00e9fense", "operator": "SNCF;RATP", "railway": "station", "railway:ref": "LDU", "ref": "973000", "ref:FR:RATP": "1850;1871", "ref:FR:STIF": "22101;40951", "ref:FR:sncf:resarail": "FRDEG", "ref:FR:uic8": "87382218", "ref:SNCF": "Transilien", "ref:SNCF:Transilien": "L;U", "start_date": "1970-02-20", "station": "subway", "subway": "yes", "train": "yes", "tram": "yes", "type:RATP": "metro;tram;RER", "uic_ref": "8738221", "wheelchair": "yes", "wikidata": "Q140277", "wikipedia": "fr:La D\u00e9fense (m\u00e9tro de Paris)"}}, {"type": "node", "id": 3638023919, "lat": 48.9233755, "lon": 2.2082161, "tags": {"bus": "yes", "name": "Grand Cerf", "public_transport": "stop_position"}}, {"type": "node", "id": 3647581775, "lat": 48.8925907, "lon": 2.2278003, "tags": {"bus": "yes", "name": "Cimeti\u00e8re Nouveau", "public_transport": "stop_position"}}, {"type": "node", "id": 3785864503, "lat": 48.9370065, "lon": 2.172801, "tags": {"bus": "yes", "name": "Madeleine Br\u00e8s", "public_transport": "stop_position"}}, {"type": "node", "id": 3865165382, "lat": 48.9231184, "lon": 2.2176398, "tags": {"STIF:zone": "4", "name": "Pont de Bezons", "operator": "RATP \u00cele de France Mobilit\u00e9s", "public_transport": "stop_position", "railway": "tram_stop", "ref:FR:RATP": "446346", "source": "RATP - 07/2012", "tram": "yes", "wheelchair": "yes"}}, {"type": "node", "id": 3865165383, "lat": 48.9231431, "lon": 2.2175925, "tags": {"STIF:zone": "4", "name": "Pont de Bezons", "public_transport": "stop_position", "railway": "tram_stop", "ref:FR:RATP": "446346", "source": "RATP - 07/2012", "tram": "yes", "wheelchair": "yes"}}, {"type": "node", "id": 3900715123, "lat": 48.9009568, "lon": 2.2136585, "tags": {"STIF:zone": "3", "level": "-1", "local_ref": "2", "name": "Nanterre - Universit\u00e9", "network": "Transilien;RER", "operator": "SNCF Gares & Connexions", "operator:wikidata": "Q3098278", "public_transport": "stop_position", "railway": "stop", "ref:FR:RATP": "1756", "ref:SNCF": "Transilien", "ref:SNCF:Transilien": "L", "tactile_paving": "yes", "train": "yes", "type:RATP": "rer", "uic_name": "nanterre-universite", "uic_ref": "8775803; 8738631", "wheelchair": "no", "wikidata": "Q2414148", "wikipedia": "fr:Gare de Nanterre-Universit\u00e9"}}, {"type": "node", "id": 3912978528, "lat": 48.9011267, "lon": 2.2135252, "tags": {"STIF:zone": "3", "level": "-1", "local_ref": "1", "name": "Nanterre - Universit\u00e9", "network": "Transilien;RER", "operator": "SNCF Gares & Connexions", "operator:wikidata": "Q3098278", "public_transport": "stop_position", "railway": "stop", "ref:FR:RATP": "1756", "ref:SNCF": "Transilien", "ref:SNCF:Transilien": "L", "tactile_paving": "yes", "train": "yes", "type:RATP": "rer", "uic_name": "nanterre-universite", "uic_ref": "8775803; 8738631", "wheelchair": "no", "wikidata": "Q2414148", "wikipedia": "fr:Gare de Nanterre-Universit\u00e9"}}, {"type": "node", "id": 3958351515, "lat": 48.9661849, "lon": 2.2086628, "tags": {"bus": "yes", "name": "Noyer de l'Image", "public_transport": "stop_position"}}, {"type": "node", "id": 3976260884, "lat": 48.8807605, "lon": 2.2729046}, {"type": "node", "id": 3976260886, "lat": 48.8811662, "lon": 2.2715855}, {"type": "node", "id": 3976260887, "lat": 48.884424, "lon": 2.2610485}, {"type": "node", "id": 3976260888, "lat": 48.8844774, "lon": 2.2610865}, {"type": "node", "id": 3976260889, "lat": 48.8848332, "lon": 2.2597715}, {"type": "node", "id": 3976260890, "lat": 48.8848783, "lon": 2.2598029}, {"type": "node", "id": 4187472165, "lat": 48.9477392, "lon": 2.170735, "tags": {"bus": "yes", "name": "Martial Dechard", "public_transport": "stop_position"}}, {"type": "node", "id": 4187472166, "lat": 48.9479175, "lon": 2.1703623, "tags": {"bus": "yes", "name": "Martial Dechard", "public_transport": "stop_position", "source": "BDOrtho IGN 2022"}}, {"type": "node", "id": 4206691385, "lat": 48.9381044, "lon": 2.1575592, "tags": {"bus": "yes", "name": "Gare de Sartrouville", "public_transport": "stop_position"}}, {"type": "node", "id": 4323236597, "lat": 48.9273357, "lon": 2.2759537, "tags": {"bus": "yes", "public_transport": "stop_position"}}, {"type": "node", "id": 4337868785, "lat": 48.8915811, "lon": 2.2382503, "tags": {"alt_name": "La D\u00e9fense", "name": "La D\u00e9fense - Grande Arche", "public_transport": "stop_position", "railway": "stop", "source": "knowledge;survey", "train": "yes"}}, {"type": "node", "id": 4337868786, "lat": 48.8917538, "lon": 2.2383243, "tags": {"alt_name": "La D\u00e9fense", "level": "-4", "name": "La D\u00e9fense - Grande Arche", "public_transport": "stop_position", "railway": "stop", "source": "knowledge;survey", "train": "yes"}}, {"type": "node", "id": 4337868787, "lat": 48.8918261, "lon": 2.2383724, "tags": {"alt_name": "La D\u00e9fense", "level": "-4", "name": "La D\u00e9fense - Grande Arche", "public_transport": "stop_position", "railway": "stop", "source": "knowledge;survey", "train": "yes"}}, {"type": "node", "id": 4337868788, "lat": 48.8919594, "lon": 2.2385494, "tags": {"alt_name": "La D\u00e9fense", "level": "-5", "name": "La D\u00e9fense - Grande Arche", "public_transport": "stop_position", "railway": "stop", "source": "knowledge;survey", "train": "yes"}}, {"type": "node", "id": 4344786924, "lat": 48.9092147, "lon": 2.2386702, "tags": {"STIF:zone": "3", "level": "0", "local_ref": "A", "name": "La Garenne-Colombes", "network": "Transilien", "operator": "SNCF Gares & Connexions", "operator:wikidata": "Q3098278", "public_transport": "stop_position", "railway": "stop", "train": "yes", "uic_name": "La-garenne-colombes", "uic_ref": "8738600", "wikidata": "Q2399131", "wikipedia": "fr:Gare de La Garenne-Colombes"}}, {"type": "node", "id": 4623370623, "lat": 48.9467805, "lon": 2.2576406, "tags": {"level": "1", "local_ref": "20", "name": "Argenteuil", "public_transport": "stop_position", "railway": "stop", "railway:position:exact": "9.971", "train": "yes"}}, {"type": "node", "id": 4623370624, "lat": 48.9505148, "lon": 2.2319908, "tags": {"STIF:zone": "4", "level": "0", "local_ref": "A", "name": "Val d'Argenteuil", "official_name": "VAL D'ARGENTEUIL", "operator": "SNCF Gares & Connexions", "operator:wikidata": "Q3098278", "public_transport": "stop_position", "railway": "stop", "ref:SNCF": "Transilien", "ref:SNCF:Transilien": "J", "train": "yes", "uic_ref": "8738179", "wikidata": "Q2498496", "wikipedia": "fr:Gare du Val d'Argenteuil"}}, {"type": "node", "id": 4623873176, "lat": 48.9469734, "lon": 2.25821, "tags": {"level": "1", "local_ref": "25", "name": "Argenteuil", "public_transport": "stop_position", "railway": "stop", "railway:position:exact": "9.971", "train": "yes"}}, {"type": "node", "id": 4623893484, "lat": 48.9469105, "lon": 2.2580245, "tags": {"level": "1", "local_ref": "23", "name": "Argenteuil", "public_transport": "stop_position", "railway": "stop", "railway:position:exact": "9.971", "train": "yes"}}, {"type": "node", "id": 4623893485, "lat": 48.9314188, "lon": 2.2605869, "tags": {"level": "1", "local_ref": "1bis", "name": "Le Stade", "public_transport": "stop_position", "railway": "stop", "railway:position:exact": "8.086", "train": "yes"}}, {"type": "node", "id": 4623893486, "lat": 48.9140918, "lon": 2.2716171, "tags": {"level": "-1", "local_ref": "1B", "name": "Bois-Colombes", "public_transport": "stop_position", "railway": "stop", "train": "yes"}}, {"type": "node", "id": 4623893989, "lat": 48.923804, "lon": 2.2593091, "tags": {"level": "1", "local_ref": "A", "name": "Colombes", "public_transport": "stop_position", "railway": "stop", "train": "yes"}}, {"type": "node", "id": 4665155741, "lat": 48.9202856, "lon": 2.1853217, "tags": {"STIF:zone": "4", "level": "0", "local_ref": "C", "name": "Houilles Carri\u00e8res-sur-Seine", "operator": "SNCF Gares & Connexions", "operator:wikidata": "Q3098278", "public_transport": "stop_position", "railway": "stop", "train": "yes", "uic_ref": "8738640", "wikidata": "Q2468330", "wikipedia": "fr:Gare de Houilles - Carri\u00e8res-sur-Seine"}}, {"type": "node", "id": 4854156550, "lat": 48.9015841, "lon": 2.2386909, "tags": {"bus": "yes", "name": "Les Fauvelles", "public_transport": "stop_position", "source": "survey"}}, {"type": "node", "id": 4854156551, "lat": 48.9042962, "lon": 2.2392071, "tags": {"bus": "yes", "name": "Nordmann", "public_transport": "stop_position", "source": "survey"}}, {"type": "node", "id": 4854156552, "lat": 48.9069632, "lon": 2.2399866, "tags": {"bus": "yes", "name": "La Garenne-Colombes - Charlebourg", "public_transport": "stop_position", "source": "survey"}}, {"type": "node", "id": 4854713359, "lat": 48.8951644, "lon": 2.2406864, "tags": {"bus": "yes", "name": "Caron", "public_transport": "stop_position", "source": "survey"}}, {"type": "node", "id": 4854713360, "lat": 48.8971761, "lon": 2.2401437, "tags": {"bus": "yes", "name": "Faubourg de l'Arche", "public_transport": "stop_position", "source": "survey"}}, {"type": "node", "id": 4854713361, "lat": 48.8969522, "lon": 2.2375741, "tags": {"bus": "yes", "name": "L\u00e9onard de Vinci", "public_transport": "stop_position", "source": "survey"}}, {"type": "node", "id": 4854713362, "lat": 48.8965612, "lon": 2.2346924, "tags": {"bus": "yes", "name": "Rue des \u00c9tudiants", "public_transport": "stop_position", "source": "survey"}}, {"type": "node", "id": 4854713363, "lat": 48.8994295, "lon": 2.2369765, "tags": {"bus": "yes", "name": "Puvis de Chavannes", "public_transport": "stop_position", "source": "survey"}}, {"type": "node", "id": 4860644405, "lat": 48.8848864, "lon": 2.2593155, "tags": {"bus": "yes", "name": "Pont de Neuilly - M\u00e9tro", "public_transport": "stop_position", "source": "survey"}}, {"type": "node", "id": 4880638200, "lat": 48.8867305, "lon": 2.2477138, "tags": {"bus": "yes", "name": "Bellini", "public_transport": "stop_position", "source": "survey"}}, {"type": "node", "id": 4880638201, "lat": 48.8873804, "lon": 2.2436707, "tags": {"bus": "yes", "name": "Gallieni", "public_transport": "stop_position", "source": "survey"}}, {"type": "node", "id": 4880638202, "lat": 48.88793, "lon": 2.240435, "tags": {"bus": "yes", "name": "Boieldieu", "public_transport": "stop_position", "source": "survey"}}, {"type": "node", "id": 4881244391, "lat": 48.8920617, "lon": 2.2390395, "tags": {"bus": "yes", "name": "La D\u00e9fense", "network": "RATP", "network:wikidata": "Q474674", "operator": "RATP", "operator:wikidata": "Q643290", "public_transport": "stop_position", "tactile_paving": "no"}}, {"type": "node", "id": 4890489598, "lat": 48.8852978, "lon": 2.2590857, "tags": {"bus": "yes", "name": "Pont de Neuilly", "public_transport": "stop_position", "source": "survey"}}, {"type": "node", "id": 4890489599, "lat": 48.8854017, "lon": 2.2587587, "tags": {"bus": "yes", "name": "Pont de Neuilly", "public_transport": "stop_position", "source": "survey"}}, {"type": "node", "id": 4894273665, "lat": 48.8936562, "lon": 2.2379705, "tags": {"level": "-1", "local_ref": "2", "name": "La D\u00e9fense", "network": "Transilien", "operator": "SNCF R\u00e9seau", "public_transport": "stop_position", "railway": "stop", "railway:track_ref": "2", "ref:FR:uic8": "87382218", "tactile_paving": "no", "train": "yes", "uic_name": "la-defense", "uic_ref": "8738221"}}, {"type": "node", "id": 4894277304, "lat": 48.8919001, "lon": 2.243158, "tags": {"bus": "yes", "name": "Gambetta", "public_transport": "stop_position", "source": "survey"}}, {"type": "node", "id": 4894277306, "lat": 48.8879099, "lon": 2.2519357, "tags": {"bus": "yes", "name": "Pont de Neuilly - Rive Gauche", "public_transport": "stop_position", "source": "survey"}}, {"type": "node", "id": 4896654638, "lat": 48.8987945, "lon": 2.2345564, "tags": {"bus": "yes", "name": "Puvis de Chavannes", "public_transport": "stop_position", "source": "survey"}}, {"type": "node", "id": 4896654640, "lat": 48.896913, "lon": 2.2374312, "tags": {"bus": "yes", "name": "L\u00e9onard de Vinci", "public_transport": "stop_position", "source": "survey"}}, {"type": "node", "id": 4896802209, "lat": 48.9052352, "lon": 2.239294, "tags": {"bus": "yes", "name": "Nordmann", "public_transport": "stop_position", "source": "survey"}}, {"type": "node", "id": 4896802211, "lat": 48.9012451, "lon": 2.2386559, "tags": {"bus": "yes", "name": "Les Fauvelles", "public_transport": "stop_position", "source": "survey"}}, {"type": "node", "id": 4896802213, "lat": 48.896912, "lon": 2.2344343, "tags": {"bus": "yes", "name": "Rue des \u00c9tudiants", "public_transport": "stop_position", "source": "survey"}}, {"type": "node", "id": 4896802214, "lat": 48.8949774, "lon": 2.2405518, "tags": {"bus": "yes", "name": "Caron", "public_transport": "stop_position", "source": "survey"}}, {"type": "node", "id": 4897619878, "lat": 48.8913559, "lon": 2.2380037, "tags": {"bus": "yes", "name": "La D\u00e9fense", "network": "RATP", "network:wikidata": "Q474674", "operator": "RATP", "operator:wikidata": "Q643290", "public_transport": "stop_position", "source": "survey"}}, {"type": "node", "id": 4908415073, "lat": 48.9450303, "lon": 2.1783748, "tags": {"bench": "yes", "bus": "yes", "name": "Picardie", "public_transport": "stop_position", "shelter": "yes"}}, {"type": "node", "id": 4934589982, "lat": 48.8798546, "lon": 2.232331, "tags": {"bus": "yes", "name": "Victor Hugo", "public_transport": "stop_position"}}, {"type": "node", "id": 4934589983, "lat": 48.8799493, "lon": 2.231023, "tags": {"bus": "yes", "name": "Victor Hugo", "public_transport": "stop_position"}}, {"type": "node", "id": 4934589984, "lat": 48.8822106, "lon": 2.2348902, "tags": {"bus": "yes", "public_transport": "stop_position"}}, {"type": "node", "id": 4934589985, "lat": 48.8817709, "lon": 2.2357914, "tags": {"bus": "yes", "name": "Wallace \u2013 Voillin", "public_transport": "stop_position"}}, {"type": "node", "id": 4934589986, "lat": 48.8807812, "lon": 2.2367401, "tags": {"bus": "yes", "name": "Wallace \u2013 Jaur\u00e8s", "public_transport": "stop_position"}}, {"type": "node", "id": 4934589987, "lat": 48.8806546, "lon": 2.2381706, "tags": {"bus": "yes", "name": "Wallace \u2013 Jean Jaur\u00e8s", "public_transport": "stop_position"}}, {"type": "node", "id": 4934589988, "lat": 48.8812827, "lon": 2.2368429, "tags": {"bus": "yes", "name": "Wallace \u2013 Eichenberger", "public_transport": "stop_position"}}, {"type": "node", "id": 4934589989, "lat": 48.8804494, "lon": 2.238605, "tags": {"bus": "yes", "name": "Wallace \u2013 Jean Jaur\u00e8s", "public_transport": "stop_position"}}, {"type": "node", "id": 4934589990, "lat": 48.8806002, "lon": 2.2375756, "tags": {"bus": "yes", "name": "Wallace \u2013 Jaur\u00e8s", "public_transport": "stop_position"}}, {"type": "node", "id": 4934589991, "lat": 48.8798732, "lon": 2.2356557, "tags": {"bus": "yes", "name": "Bas Rogers", "public_transport": "stop_position"}}, {"type": "node", "id": 4934589992, "lat": 48.879922, "lon": 2.2367485, "tags": {"bus": "yes", "name": "Bas Rogers", "public_transport": "stop_position"}}, {"type": "node", "id": 4934589993, "lat": 48.8787857, "lon": 2.2353977, "tags": {"bus": "yes", "name": "R\u00e9sidence Verdun", "network": "RATP", "network:wikidata": "Q474674", "operator": "RATP", "operator:wikidata": "Q643290", "public_transport": "stop_position", "ref:FR:STIF": "39449"}}, {"type": "node", "id": 4937318018, "lat": 48.8887918, "lon": 2.2367354, "tags": {"bus": "yes", "name": "Les Bouvets", "public_transport": "stop_position"}}, {"type": "node", "id": 4937318019, "lat": 48.8862164, "lon": 2.175276, "tags": {"bus": "yes", "name": "Colmar", "public_transport": "stop_position"}}, {"type": "node", "id": 4937318020, "lat": 48.8840013, "lon": 2.1788093, "tags": {"bus": "yes", "name": "Baudin", "public_transport": "stop_position"}}, {"type": "node", "id": 4937377890, "lat": 48.8876066, "lon": 2.2372163, "tags": {"bus": "yes", "name": "Boieldieu", "public_transport": "stop_position"}}, {"type": "node", "id": 4937377891, "lat": 48.8845883, "lon": 2.2388943, "tags": {"bus": "yes", "name": "Mairie de Puteaux", "public_transport": "stop_position"}}, {"type": "node", "id": 4937377892, "lat": 48.8827557, "lon": 2.2368714, "tags": {"bus": "yes", "name": "Mairie - \u00c9glise", "public_transport": "stop_position"}}, {"type": "node", "id": 4937450991, "lat": 48.8864046, "lon": 2.1750596, "tags": {"bus": "yes", "name": "Colmar", "public_transport": "stop_position"}}, {"type": "node", "id": 4937450992, "lat": 48.8839077, "lon": 2.1745628, "tags": {"bus": "yes", "name": "Baudin", "public_transport": "stop_position"}}, {"type": "node", "id": 4937450993, "lat": 48.8806954, "lon": 2.1795682, "tags": {"bus": "yes", "name": "Albert 1er - Rueil Ville", "public_transport": "stop_position"}}, {"type": "node", "id": 4937451006, "lat": 48.8825652, "lon": 2.2390001, "tags": {"bus": "yes", "name": "March\u00e9 de Puteaux", "public_transport": "stop_position"}}, {"type": "node", "id": 4937451007, "lat": 48.8838296, "lon": 2.2395066, "tags": {"bus": "yes", "name": "Mairie - Anatole France", "public_transport": "stop_position"}}, {"type": "node", "id": 4937451008, "lat": 48.8867427, "lon": 2.2396806, "tags": {"bus": "yes", "name": "Boieldieu", "public_transport": "stop_position"}}, {"type": "node", "id": 4939131678, "lat": 48.8842376, "lon": 2.2498992, "tags": {"bus": "yes", "name": "Soljenitsyne", "public_transport": "stop_position"}}, {"type": "node", "id": 4941141228, "lat": 48.8919515, "lon": 2.2539624, "tags": {"bus": "yes", "name": "Victor Hugo", "public_transport": "stop_position"}}, {"type": "node", "id": 4941141229, "lat": 48.8873193, "lon": 2.2525056, "tags": {"bus": "yes", "name": "RD 7 - Pont de Neuilly", "public_transport": "stop_position"}}, {"type": "node", "id": 4941141230, "lat": 48.8835385, "lon": 2.2489578, "tags": {"bus": "yes", "name": "Soljenitsyne", "public_transport": "stop_position"}}, {"type": "node", "id": 4941169366, "lat": 48.8800739, "lon": 2.2187443, "tags": {"bus": "yes", "name": "Libert\u00e9 \u2013 Plaideurs", "public_transport": "stop_position"}}, {"type": "node", "id": 4941169367, "lat": 48.8790207, "lon": 2.2223223, "tags": {"bus": "yes", "name": "Les Par\u00e9chaux", "public_transport": "stop_position"}}, {"type": "node", "id": 4941169368, "lat": 48.8781814, "lon": 2.2237212, "tags": {"bus": "yes", "name": "Lyc\u00e9e Paul Langevin", "public_transport": "stop_position"}}, {"type": "node", "id": 4941169369, "lat": 48.8789685, "lon": 2.2264675, "tags": {"bus": "yes", "name": "Capitaine Ferber", "public_transport": "stop_position"}}, {"type": "node", "id": 4941169370, "lat": 48.878799, "lon": 2.2420313, "tags": {"bus": "yes", "name": "H\u00f4pital - Pont de Puteaux", "public_transport": "stop_position"}}, {"type": "node", "id": 4941169372, "lat": 48.8879592, "lon": 2.2535512, "tags": {"bus": "yes", "name": "Pont de Neuilly - Rive Gauche", "public_transport": "stop_position"}}, {"type": "node", "id": 4943067541, "lat": 48.8914799, "lon": 2.2782758, "tags": {"bus": "yes", "name": "H\u00f4pital du Perp\u00e9tuel Secours", "public_transport": "stop_position"}}, {"type": "node", "id": 4943067542, "lat": 48.8916698, "lon": 2.278084, "tags": {"bus": "yes", "name": "H\u00f4pital du Perp\u00e9tuel Secours", "public_transport": "stop_position"}}, {"type": "node", "id": 4943067545, "lat": 48.888176, "lon": 2.2817789, "tags": {"bus": "yes", "name": "Louis Rouquier", "public_transport": "stop_position"}}, {"type": "node", "id": 4943067546, "lat": 48.8900174, "lon": 2.2798171, "tags": {"bus": "yes", "name": "Voltaire - Villiers", "public_transport": "stop_position"}}, {"type": "node", "id": 4943067547, "lat": 48.8931518, "lon": 2.2761651, "tags": {"bus": "yes", "name": "Place de la Lib\u00e9ration", "public_transport": "stop_position"}}, {"type": "node", "id": 4943067548, "lat": 48.8957973, "lon": 2.2728218, "tags": {"bus": "yes", "name": "Villiers", "public_transport": "stop_position"}}, {"type": "node", "id": 4943067550, "lat": 48.8946303, "lon": 2.2698995, "tags": {"bus": "yes", "name": "Centre des Imp\u00f4ts", "public_transport": "stop_position"}}, {"type": "node", "id": 4943067551, "lat": 48.8930722, "lon": 2.2668723, "tags": {"bus": "yes", "name": "Pont de la Grande Jatte", "public_transport": "stop_position"}}, {"type": "node", "id": 4943067553, "lat": 48.8884387, "lon": 2.2641995, "tags": {"bus": "yes", "name": "Ch\u00e2teau", "public_transport": "stop_position"}}, {"type": "node", "id": 4943067555, "lat": 48.8851991, "lon": 2.2607389, "tags": {"bus": "yes", "name": "Pont de Neuilly", "public_transport": "stop_position"}}, {"type": "node", "id": 4943067556, "lat": 48.8813549, "lon": 2.2589402, "tags": {"bus": "yes", "name": "Maurice Barr\u00e8s", "public_transport": "stop_position"}}, {"type": "node", "id": 4943067557, "lat": 48.8804883, "lon": 2.2554228, "tags": {"bus": "yes", "name": "Rue du Bois de Boulogne", "public_transport": "stop_position"}}, {"type": "node", "id": 4943067558, "lat": 48.8793504, "lon": 2.25353, "tags": {"bus": "yes", "name": "Rue du Centre", "public_transport": "stop_position"}}, {"type": "node", "id": 4943067560, "lat": 48.8786292, "lon": 2.2421854, "tags": {"bus": "yes", "name": "H\u00f4pital - Pont de Puteaux", "public_transport": "stop_position"}}, {"type": "node", "id": 4944459136, "lat": 48.8901094, "lon": 2.2797247, "tags": {"bus": "yes", "name": "Voltaire - Villiers", "public_transport": "stop_position"}}, {"type": "node", "id": 4944459137, "lat": 48.8889014, "lon": 2.2810054, "tags": {"bus": "yes", "name": "Louis Rouquier", "public_transport": "stop_position"}}, {"type": "node", "id": 4944459138, "lat": 48.8932051, "lon": 2.2665221, "tags": {"bus": "yes", "name": "Pont de la Grande Jatte", "public_transport": "stop_position"}}, {"type": "node", "id": 4944459139, "lat": 48.8900678, "lon": 2.2612912, "tags": {"bus": "yes", "name": "Coll\u00e8ge Andr\u00e9 Maurois", "public_transport": "stop_position"}}, {"type": "node", "id": 4944459140, "lat": 48.887725, "lon": 2.2639157, "tags": {"bus": "yes", "name": "Ch\u00e2teau", "public_transport": "stop_position"}}, {"type": "node", "id": 4944459141, "lat": 48.8842481, "lon": 2.2602793, "tags": {"bus": "yes", "name": "Pont de Neuilly", "public_transport": "stop_position"}}, {"type": "node", "id": 4944459142, "lat": 48.8813631, "lon": 2.2588537, "tags": {"bus": "yes", "name": "Maurice Barr\u00e8s", "public_transport": "stop_position"}}, {"type": "node", "id": 4944459143, "lat": 48.8811621, "lon": 2.2544367, "tags": {"bus": "yes", "name": "Rue du Bois de Boulogne", "public_transport": "stop_position"}}, {"type": "node", "id": 4944459144, "lat": 48.8796754, "lon": 2.2532728, "tags": {"bus": "yes", "name": "Rue du Centre", "public_transport": "stop_position"}}, {"type": "node", "id": 4947065740, "lat": 48.887559, "lon": 2.1794073, "tags": {"bus": "yes", "name": "D'Estienne d'Orves", "public_transport": "stop_position"}}, {"type": "node", "id": 4947065741, "lat": 48.8896487, "lon": 2.1791864, "tags": {"bus": "yes", "name": "Pereire", "public_transport": "stop_position"}}, {"type": "node", "id": 4947065742, "lat": 48.8897735, "lon": 2.1814188, "tags": {"bus": "yes", "name": "Cit\u00e9 du Vieux Pont", "public_transport": "stop_position"}}, {"type": "node", "id": 4947065743, "lat": 48.88818, "lon": 2.1845699, "tags": {"bus": "yes", "name": "Rue du Mans", "public_transport": "stop_position"}}, {"type": "node", "id": 4947065744, "lat": 48.8879161, "lon": 2.1888001, "tags": {"bus": "yes", "name": "Les Goulvents", "public_transport": "stop_position"}}, {"type": "node", "id": 4947065745, "lat": 48.8873973, "lon": 2.1992624, "tags": {"bus": "yes", "name": "Place de la Boule \u2013 L\u00e9nine", "public_transport": "stop_position"}}, {"type": "node", "id": 4947065746, "lat": 48.8871741, "lon": 2.2014794, "tags": {"bus": "yes", "name": "Place de la Boule \u2013 Clemenceau", "public_transport": "stop_position"}}, {"type": "node", "id": 4947065747, "lat": 48.8869144, "lon": 2.2043395, "tags": {"bus": "yes", "name": "La Source", "public_transport": "stop_position"}}, {"type": "node", "id": 4947065748, "lat": 48.8865338, "lon": 2.2085704, "tags": {"bus": "yes", "name": "Cl\u00e9menceau \u2013 Sadi Carnot", "public_transport": "stop_position"}}, {"type": "node", "id": 4947065750, "lat": 48.885589, "lon": 2.2210727, "tags": {"bus": "yes", "name": "Craiova", "public_transport": "stop_position"}}, {"type": "node", "id": 4947065752, "lat": 48.883843, "lon": 2.2344213, "tags": {"bus": "yes", "name": "Gare de Puteaux", "public_transport": "stop_position"}}, {"type": "node", "id": 4947065754, "lat": 48.8863688, "lon": 2.2440983, "tags": {"bus": "yes", "name": "Rousselle", "public_transport": "stop_position"}}, {"type": "node", "id": 4947065755, "lat": 48.8879284, "lon": 2.253498, "tags": {"bus": "yes", "name": "Pont de Neuilly - Rive Gauche", "public_transport": "stop_position"}}, {"type": "node", "id": 4947065757, "lat": 48.8882443, "lon": 2.1930491, "tags": {"bus": "yes", "name": "Foch", "public_transport": "stop_position"}}, {"type": "node", "id": 4955542531, "lat": 48.8857719, "lon": 2.2189032, "tags": {"bus": "yes", "name": "Les Fontenelles", "public_transport": "stop_position"}}, {"type": "node", "id": 4955542532, "lat": 48.8856723, "lon": 2.2464061, "tags": {"bus": "yes", "name": "Paul Lafargue", "public_transport": "stop_position"}}, {"type": "node", "id": 4955542533, "lat": 48.8858987, "lon": 2.2463386, "tags": {"bus": "yes", "name": "Paul Lafargue", "public_transport": "stop_position"}}, {"type": "node", "id": 4955542535, "lat": 48.8844607, "lon": 2.2483632, "tags": {"bus": "yes", "name": "Soljenitsyne", "public_transport": "stop_position"}}, {"type": "node", "id": 4955542537, "lat": 48.8850851, "lon": 2.2507226, "tags": {"bus": "yes", "name": "Bellini", "public_transport": "stop_position"}}, {"type": "node", "id": 4955625399, "lat": 48.8868827, "lon": 2.2524876, "tags": {"bus": "yes", "name": "Pont de Neuilly - Rive Gauche", "public_transport": "stop_position"}}, {"type": "node", "id": 4955625400, "lat": 48.8841204, "lon": 2.2455656, "tags": {"bus": "yes", "name": "Arago - Jean Jaur\u00e8s", "public_transport": "stop_position"}}, {"type": "node", "id": 4955625401, "lat": 48.8862322, "lon": 2.2437596, "tags": {"bus": "yes", "name": "Rousselle", "public_transport": "stop_position"}}, {"type": "node", "id": 4955625403, "lat": 48.8844801, "lon": 2.2288798, "tags": {"bus": "yes", "name": "Palissy", "public_transport": "stop_position"}}, {"type": "node", "id": 4955625405, "lat": 48.8854611, "lon": 2.2218314, "tags": {"bus": "yes", "name": "Craiova", "public_transport": "stop_position", "survey:date": "2017-09-22"}}, {"type": "node", "id": 4955625406, "lat": 48.8856437, "lon": 2.2193675, "tags": {"bus": "yes", "name": "Les Fontenelles", "public_transport": "stop_position"}}, {"type": "node", "id": 4955625407, "lat": 48.8860272, "lon": 2.2142993, "tags": {"bus": "yes", "name": "F\u00e9lix Faure", "public_transport": "stop_position"}}, {"type": "node", "id": 4955625408, "lat": 48.8863335, "lon": 2.2099641, "tags": {"bus": "yes", "name": "Cl\u00e9menceau \u2013 Sadi Carnot", "public_transport": "stop_position"}}, {"type": "node", "id": 4955625409, "lat": 48.886613, "lon": 2.2070328, "tags": {"bus": "yes", "name": "La Source", "public_transport": "stop_position"}}, {"type": "node", "id": 4955625410, "lat": 48.8869585, "lon": 2.201834, "tags": {"bus": "yes", "name": "Place de la Boule \u2013 Clemenceau", "public_transport": "stop_position"}}, {"type": "node", "id": 4955625412, "lat": 48.8878561, "lon": 2.1885657, "tags": {"bus": "yes", "name": "Les Goulvents", "public_transport": "stop_position"}}, {"type": "node", "id": 4955625414, "lat": 48.8874903, "lon": 2.1839083, "tags": {"bus": "yes", "name": "Rue du Mans", "public_transport": "stop_position"}}, {"type": "node", "id": 4955625416, "lat": 48.8872008, "lon": 2.1807407, "tags": {"bus": "yes", "name": "D'Estienne d'Orves", "public_transport": "stop_position"}}, {"type": "node", "id": 4959839273, "lat": 48.882046, "lon": 2.2471908, "tags": {"bus": "yes", "name": "Square L\u00e9on Blum", "public_transport": "stop_position"}}, {"type": "node", "id": 4959839275, "lat": 48.8790387, "lon": 2.2268422, "tags": {"bus": "yes", "name": "Capitaine Ferber", "public_transport": "stop_position"}}, {"type": "node", "id": 4959839277, "lat": 48.8794657, "lon": 2.2191178, "tags": {"bus": "yes", "name": "Libert\u00e9 \u2013 Plaideurs", "public_transport": "stop_position"}}, {"type": "node", "id": 4959839278, "lat": 48.8822935, "lon": 2.2175621, "tags": {"bus": "yes", "name": "Verdun", "public_transport": "stop_position"}}, {"type": "node", "id": 4959839279, "lat": 48.8843611, "lon": 2.2141801, "tags": {"bus": "yes", "name": "Les Alouettes", "public_transport": "stop_position"}}, {"type": "node", "id": 4959839280, "lat": 48.8861563, "lon": 2.2097311, "tags": {"bus": "yes", "name": "Cl\u00e9menceau \u2013 Sadi Carnot", "public_transport": "stop_position"}}, {"type": "node", "id": 4959839281, "lat": 48.8876061, "lon": 2.2067839, "tags": {"bus": "yes", "name": "Carriers", "public_transport": "stop_position"}}, {"type": "node", "id": 4959839282, "lat": 48.8890433, "lon": 2.202937, "tags": {"bus": "yes", "name": "Sadi Carnot \u2013 Joliot Curie", "public_transport": "stop_position"}}, {"type": "node", "id": 4959839283, "lat": 48.8896227, "lon": 2.1995053, "tags": {"bus": "yes", "name": "Rochegude", "public_transport": "stop_position"}}, {"type": "node", "id": 4959839284, "lat": 48.8902966, "lon": 2.1990962, "tags": {"bus": "yes", "name": "Plainchamp", "public_transport": "stop_position"}}, {"type": "node", "id": 4959839285, "lat": 48.892808, "lon": 2.198389, "tags": {"bus": "yes", "name": "Rue des Anciennes Mairies", "public_transport": "stop_position"}}, {"type": "node", "id": 4959839286, "lat": 48.8936567, "lon": 2.1968314, "tags": {"bus": "yes", "name": "Maurice Thorez", "public_transport": "stop_position"}}, {"type": "node", "id": 4959839287, "lat": 48.8947656, "lon": 2.1949202, "tags": {"bus": "yes", "name": "Nanterre - Ville RER", "public_transport": "stop_position"}}, {"type": "node", "id": 4959839288, "lat": 48.8960758, "lon": 2.1963119, "tags": {"bus": "yes", "name": "Nanterre-Ville RER - Faidherbe", "public_transport": "stop_position"}}, {"type": "node", "id": 4959839290, "lat": 48.8971937, "lon": 2.1959272, "tags": {"bus": "yes", "name": "G\u00e9n\u00e9ral Leclerc", "public_transport": "stop_position"}}, {"type": "node", "id": 4959839291, "lat": 48.8992382, "lon": 2.1951951, "tags": {"bus": "yes", "name": "Voltaire", "public_transport": "stop_position"}}, {"type": "node", "id": 4959839292, "lat": 48.9012909, "lon": 2.1944959, "tags": {"bus": "yes", "name": "Lannes", "public_transport": "stop_position"}}, {"type": "node", "id": 4959839293, "lat": 48.9037608, "lon": 2.1935996, "tags": {"bus": "yes", "name": "Boulevard de la Seine", "public_transport": "stop_position"}}, {"type": "node", "id": 4959870577, "lat": 48.8785775, "lon": 2.2114441, "tags": {"bus": "yes", "name": "Plaideurs - Vaillant Couturier", "public_transport": "stop_position"}}, {"type": "node", "id": 4959870578, "lat": 48.8793402, "lon": 2.208578, "tags": {"bus": "yes", "name": "Calvaire - Mairie Annexe", "public_transport": "stop_position"}}, {"type": "node", "id": 4959870579, "lat": 48.8814049, "lon": 2.2054904, "tags": {"bus": "yes", "name": "Daniel Becker", "public_transport": "stop_position"}}, {"type": "node", "id": 4959870580, "lat": 48.8835542, "lon": 2.2035959, "tags": {"bus": "yes", "name": "Pierre Sergent", "public_transport": "stop_position"}}, {"type": "node", "id": 4959870581, "lat": 48.8875565, "lon": 2.2013065, "tags": {"bus": "yes", "name": "Place de la Boule \u2013 Juliot Curie", "public_transport": "stop_position"}}, {"type": "node", "id": 4959870582, "lat": 48.8966532, "lon": 2.2007592, "tags": {"bus": "yes", "name": "Paul Bert", "public_transport": "stop_position"}}, {"type": "node", "id": 4959870583, "lat": 48.8978332, "lon": 2.2065229, "tags": {"bus": "yes", "name": "Gounod", "public_transport": "stop_position"}}, {"type": "node", "id": 4959870584, "lat": 48.8949317, "lon": 2.2092063, "tags": {"bus": "yes", "name": "Balzac \u2013 Zola", "public_transport": "stop_position"}}, {"type": "node", "id": 4959870585, "lat": 48.8943435, "lon": 2.2130167, "tags": {"bus": "yes", "name": "Joliot Curie - Courbevoie", "public_transport": "stop_position"}}, {"type": "node", "id": 4959870586, "lat": 48.8953777, "lon": 2.2148481, "tags": {"bus": "yes", "name": "Prefecture des Hauts de Seine", "public_transport": "stop_position"}}, {"type": "node", "id": 4959870587, "lat": 48.8966689, "lon": 2.2182414, "tags": {"bus": "yes", "name": "Marcel Paul", "public_transport": "stop_position"}}, {"type": "node", "id": 4963783792, "lat": 48.8953889, "lon": 2.2223664, "tags": {"bus": "yes", "name": "Esplanade Charles de Gaulle", "public_transport": "stop_position"}}, {"type": "node", "id": 4963783793, "lat": 48.8973878, "lon": 2.2180294, "tags": {"bus": "yes", "name": "Pr\u00e9fecture des Hauts-de-Seine", "public_transport": "stop_position"}}, {"type": "node", "id": 4963783794, "lat": 48.8940237, "lon": 2.2126324, "tags": {"bus": "yes", "name": "Joliot Curie - Courbevoie", "public_transport": "stop_position"}}, {"type": "node", "id": 4963783795, "lat": 48.8944548, "lon": 2.2104845, "tags": {"bus": "yes", "name": "Balzac \u2013 Zola", "public_transport": "stop_position"}}, {"type": "node", "id": 4963783796, "lat": 48.8957832, "lon": 2.2082809, "tags": {"bus": "yes", "name": "Berthelot", "public_transport": "stop_position"}}, {"type": "node", "id": 4963783797, "lat": 48.8984991, "lon": 2.2061509, "tags": {"bus": "yes", "name": "Gounod", "public_transport": "stop_position"}}, {"type": "node", "id": 4963783799, "lat": 48.8955644, "lon": 2.1973623, "tags": {"bus": "yes", "name": "Nanterre - Ville RER", "public_transport": "stop_position"}}, {"type": "node", "id": 4963783800, "lat": 48.892085, "lon": 2.1995224, "tags": {"bus": "yes", "name": "Plainchamp", "public_transport": "stop_position"}}, {"type": "node", "id": 4963783801, "lat": 48.8898595, "lon": 2.203322, "tags": {"bus": "yes", "name": "Les Ven\u00eats", "public_transport": "stop_position"}}, {"type": "node", "id": 4963783803, "lat": 48.8834804, "lon": 2.2037737, "tags": {"bus": "yes", "name": "Pierre Sergent", "public_transport": "stop_position"}}, {"type": "node", "id": 4963783804, "lat": 48.8815717, "lon": 2.2053068, "tags": {"bus": "yes", "name": "Daniel Becker", "public_transport": "stop_position"}}, {"type": "node", "id": 4963783805, "lat": 48.8800929, "lon": 2.2069284, "tags": {"bus": "yes", "name": "Calvaire - Mairie Annexe", "public_transport": "stop_position"}}, {"type": "node", "id": 4963783806, "lat": 48.8789115, "lon": 2.2099207, "tags": {"bus": "yes", "name": "Plaideurs - Vaillant Couturier", "public_transport": "stop_position"}}, {"type": "node", "id": 4965648788, "lat": 48.9043734, "lon": 2.2786741, "tags": {"bus": "yes", "name": "Haussmann", "public_transport": "stop_position"}}, {"type": "node", "id": 4965648789, "lat": 48.9029459, "lon": 2.2754747, "tags": {"bus": "yes", "name": "Place Mermoz", "public_transport": "stop_position"}}, {"type": "node", "id": 4965648790, "lat": 48.9004934, "lon": 2.2697944, "tags": {"bus": "yes", "name": "Franklin", "public_transport": "stop_position"}}, {"type": "node", "id": 4965648792, "lat": 48.8962574, "lon": 2.2576314, "tags": {"bus": "yes", "name": "La Montagne", "operator": "RATP", "public_transport": "stop_position"}}, {"type": "node", "id": 4965648793, "lat": 48.8953555, "lon": 2.2565897, "tags": {"bus": "yes", "name": "Mairie de Courbevoie", "public_transport": "stop_position"}}, {"type": "node", "id": 4965648794, "lat": 48.8926725, "lon": 2.2544415, "tags": {"bus": "yes", "name": "Victor Hugo", "public_transport": "stop_position"}}, {"type": "node", "id": 4965648795, "lat": 48.8906125, "lon": 2.2555748, "tags": {"bus": "yes", "name": "Paul Doumer", "public_transport": "stop_position"}}, {"type": "node", "id": 4965648797, "lat": 48.8875429, "lon": 2.253391, "tags": {"bus": "yes", "name": "RD7 - Pont de Neuilly", "public_transport": "stop_position"}}, {"type": "node", "id": 4965648799, "lat": 48.8778457, "lon": 2.241713, "tags": {"bus": "yes", "name": "Pont de Puteaux", "public_transport": "stop_position"}}, {"type": "node", "id": 4965885965, "lat": 48.8925758, "lon": 2.2533198, "tags": {"bus": "yes", "name": "Victor Hugo", "public_transport": "stop_position"}}, {"type": "node", "id": 4965885969, "lat": 48.8815846, "lon": 2.2463817, "tags": {"bus": "yes", "name": "Square L\u00e9on Blum", "public_transport": "stop_position"}}, {"type": "node", "id": 4965885970, "lat": 48.895793, "lon": 2.2563726, "tags": {"bus": "yes", "name": "Mairie de Courbevoie", "public_transport": "stop_position"}}, {"type": "node", "id": 4965885971, "lat": 48.8966609, "lon": 2.2599144, "tags": {"bus": "yes", "name": "La Montagne", "public_transport": "stop_position"}}, {"type": "node", "id": 4965885973, "lat": 48.9002851, "lon": 2.2693086, "tags": {"bus": "yes", "name": "Franklin", "public_transport": "stop_position"}}, {"type": "node", "id": 4965885974, "lat": 48.9023984, "lon": 2.2741811, "tags": {"bus": "yes", "name": "Place Mermoz", "public_transport": "stop_position"}}, {"type": "node", "id": 4965885975, "lat": 48.9037206, "lon": 2.2772471, "tags": {"bus": "yes", "name": "Haussmann", "public_transport": "stop_position"}}, {"type": "node", "id": 4965885976, "lat": 48.905923, "lon": 2.2809758, "tags": {"bus": "yes", "name": "Gare d'Asni\u00e8res", "public_transport": "stop_position"}}, {"type": "node", "id": 4965942026, "lat": 48.8868873, "lon": 2.2084081, "tags": {"bus": "yes", "name": "Clemenceau \u2013 Sadi Carnot", "public_transport": "stop_position"}}, {"type": "node", "id": 4971887397, "lat": 48.8804059, "lon": 2.1819132, "tags": {"bus": "yes", "name": "Rueil-Ville", "public_transport": "stop_position"}}, {"type": "node", "id": 4971887401, "lat": 48.8781556, "lon": 2.175681, "tags": {"bus": "yes", "name": "Danielle Casanova", "public_transport": "stop_position"}}, {"type": "node", "id": 4971887402, "lat": 48.8825659, "lon": 2.1879327, "tags": {"bus": "yes", "name": "Gabriel P\u00e9ri", "public_transport": "stop_position"}}, {"type": "node", "id": 4971887403, "lat": 48.8838839, "lon": 2.1915512, "tags": {"bus": "yes", "name": "Boulevard National", "public_transport": "stop_position"}}, {"type": "node", "id": 4971887405, "lat": 48.8867306, "lon": 2.1994444, "tags": {"bus": "yes", "name": "Place de la Boule \u2013 Joffre", "public_transport": "stop_position"}}, {"type": "node", "id": 4971887406, "lat": 48.8856143, "lon": 2.228318, "tags": {"bus": "yes", "name": "Les Berg\u00e8res", "public_transport": "stop_position"}}, {"type": "node", "id": 4971887407, "lat": 48.887697, "lon": 2.2333833, "tags": {"bus": "yes", "name": "Les Graviers", "public_transport": "stop_position"}}, {"type": "node", "id": 4971887408, "lat": 48.8885914, "lon": 2.2350762, "tags": {"bus": "yes", "name": "Les Bouvets", "public_transport": "stop_position"}}, {"type": "node", "id": 4972715513, "lat": 48.8872943, "lon": 2.1725744, "tags": {"bus": "yes", "name": "Rueil-Malmaison RER", "public_transport": "stop_position"}}, {"type": "node", "id": 4972715514, "lat": 48.8841279, "lon": 2.1785989, "tags": {"bus": "yes", "name": "Baudin", "public_transport": "stop_position"}}, {"type": "node", "id": 4972715515, "lat": 48.8814961, "lon": 2.1842662, "tags": {"bus": "yes", "name": "Brossolette", "public_transport": "stop_position"}}, {"type": "node", "id": 4972715516, "lat": 48.8800887, "lon": 2.1853357, "tags": {"bus": "yes", "name": "Le Gu\u00e9", "public_transport": "stop_position"}}, {"type": "node", "id": 4972715517, "lat": 48.8789084, "lon": 2.1878459, "tags": {"bus": "yes", "name": "Li\u00e9nard", "public_transport": "stop_position"}}, {"type": "node", "id": 4972715518, "lat": 48.8785054, "lon": 2.1920926, "tags": {"bus": "yes", "name": "Danton-Gambetta", "network": "RATP", "network:wikidata": "Q474674", "operator": "RATP", "public_transport": "stop_position"}}, {"type": "node", "id": 4972715519, "lat": 48.8778505, "lon": 2.1964813, "tags": {"bus": "yes", "name": "Fabre d'\u00c9glantine", "public_transport": "stop_position"}}, {"type": "node", "id": 4995239673, "lat": 48.9161551, "lon": 2.2721486, "tags": {"bus": "yes", "name": "La Paix", "public_transport": "stop_position"}}, {"type": "node", "id": 4995239674, "lat": 48.913608, "lon": 2.272091, "tags": {"bus": "yes", "name": "Gare de Bois-Colombes", "public_transport": "stop_position"}}, {"type": "node", "id": 4995239675, "lat": 48.9094832, "lon": 2.2718014, "tags": {"bus": "yes", "name": "Chanzy", "public_transport": "stop_position"}}, {"type": "node", "id": 4995239676, "lat": 48.908578, "lon": 2.2692613, "tags": {"bus": "yes", "name": "Balzac", "public_transport": "stop_position"}}, {"type": "node", "id": 4995239677, "lat": 48.9086373, "lon": 2.2694231, "tags": {"bus": "yes", "name": "Balzac", "public_transport": "stop_position"}}, {"type": "node", "id": 4995239678, "lat": 48.9072802, "lon": 2.2650764, "tags": {"bus": "yes", "name": "Chevreul", "public_transport": "stop_position"}}, {"type": "node", "id": 4995239679, "lat": 48.9067417, "lon": 2.2608974, "tags": {"bus": "yes", "name": "Moulin des Bruy\u00e8res", "public_transport": "stop_position"}}, {"type": "node", "id": 4995239680, "lat": 48.90566, "lon": 2.2567526, "tags": {"bus": "yes", "name": "Europe", "public_transport": "stop_position"}}, {"type": "node", "id": 4995239681, "lat": 48.8999451, "lon": 2.2465852, "tags": {"bus": "yes", "name": "Marceau", "public_transport": "stop_position"}}, {"type": "node", "id": 4995239682, "lat": 48.8984687, "lon": 2.2419714, "tags": {"bus": "yes", "name": "Normandie", "public_transport": "stop_position"}}, {"type": "node", "id": 5022078487, "lat": 48.8909853, "lon": 2.2394437, "tags": {"bus": "yes", "name": "4 Temps", "public_transport": "stop_position"}}, {"type": "node", "id": 5024575973, "lat": 48.8888309, "lon": 2.2475963, "tags": {"bus": "yes", "name": "Le Moretti", "public_transport": "stop_position"}}, {"type": "node", "id": 5047324919, "lat": 48.9012654, "lon": 2.2097866, "tags": {"bus": "yes", "name": "Nanterre - Anatole France", "public_transport": "stop_position"}}, {"type": "node", "id": 5069966585, "lat": 48.9362646, "lon": 2.2570592, "tags": {"bus": "yes", "name": "Colombes - Petit Gennevilliers", "public_transport": "stop_position"}}, {"type": "node", "id": 5069966586, "lat": 48.9317131, "lon": 2.2552549, "tags": {"bus": "yes", "name": "Boulevard d'Ach\u00e8res", "public_transport": "stop_position"}}, {"type": "node", "id": 5069966588, "lat": 48.9284641, "lon": 2.2541718, "tags": {"bus": "yes", "name": "Valmy - Gambetta - Stade", "public_transport": "stop_position"}}, {"type": "node", "id": 5069966589, "lat": 48.9259565, "lon": 2.2529437, "tags": {"bus": "yes", "name": "Fraternit\u00e9", "public_transport": "stop_position"}}, {"type": "node", "id": 5069966591, "lat": 48.9215757, "lon": 2.248426, "tags": {"bus": "yes", "name": "Jacques El\u00e9onor Ferm\u00e9", "public_transport": "stop_position"}}, {"type": "node", "id": 5069966593, "lat": 48.9183941, "lon": 2.244658, "tags": {"bus": "yes", "name": "Ostyn", "public_transport": "stop_position"}}, {"type": "node", "id": 5069966594, "lat": 48.9164142, "lon": 2.2427454, "tags": {"bus": "yes", "name": "Gros Gr\u00e8s", "public_transport": "stop_position"}}, {"type": "node", "id": 5069966595, "lat": 48.9131245, "lon": 2.2403412, "tags": {"bus": "yes", "name": "Rue du Commerce", "public_transport": "stop_position"}}, {"type": "node", "id": 5069966598, "lat": 48.906151, "lon": 2.2389438, "tags": {"bus": "yes", "name": "La Garenne-Colombes - Charlebourg", "public_transport": "stop_position"}}, {"type": "node", "id": 5069966600, "lat": 48.9045558, "lon": 2.240214, "tags": {"bus": "yes", "name": "Nordmann", "public_transport": "stop_position"}}, {"type": "node", "id": 5069966601, "lat": 48.9046576, "lon": 2.2396228, "tags": {"bus": "yes", "name": "Nordmann", "public_transport": "stop_position"}}, {"type": "node", "id": 5069966602, "lat": 48.9028573, "lon": 2.2425176, "tags": {"bus": "yes", "name": "Rhin et Danube", "public_transport": "stop_position"}}, {"type": "node", "id": 5069966603, "lat": 48.9003998, "lon": 2.2449296, "tags": {"bus": "yes", "name": "Place du 8 mai 1945", "public_transport": "stop_position"}}, {"type": "node", "id": 5069966604, "lat": 48.9009388, "lon": 2.2443875, "tags": {"bus": "yes", "name": "Place du 8 mai 1945", "public_transport": "stop_position"}}, {"type": "node", "id": 5069966605, "lat": 48.8978711, "lon": 2.2474291, "tags": {"bus": "yes", "name": "Gare de Courbevoie", "public_transport": "stop_position"}}, {"type": "node", "id": 5069966606, "lat": 48.8948273, "lon": 2.2503075, "tags": {"bus": "yes", "name": "Place Charras", "public_transport": "stop_position"}}, {"type": "node", "id": 5069966607, "lat": 48.8861045, "lon": 2.2503917, "tags": {"bus": "yes", "name": "Bellini", "public_transport": "stop_position"}}, {"type": "node", "id": 5074249521, "lat": 48.9364072, "lon": 2.2576722, "tags": {"bus": "yes", "name": "Colombes - Petit Gennevilliers", "public_transport": "stop_position"}}, {"type": "node", "id": 5074249523, "lat": 48.9324797, "lon": 2.2553634, "tags": {"bus": "yes", "name": "Boulevard d'Ach\u00e8res", "public_transport": "stop_position"}}, {"type": "node", "id": 5074249525, "lat": 48.928188, "lon": 2.2540204, "tags": {"bus": "yes", "name": "Valmy - Gambetta - Stade", "public_transport": "stop_position"}}, {"type": "node", "id": 5074249527, "lat": 48.9241735, "lon": 2.2526829, "tags": {"bus": "yes", "name": "G\u00e9n\u00e9ral Leclerc", "public_transport": "stop_position"}}, {"type": "node", "id": 5074249529, "lat": 48.9229948, "lon": 2.2506459, "tags": {"bus": "yes", "name": "\u00c9glise de Colombes", "public_transport": "stop_position"}}, {"type": "node", "id": 5074249532, "lat": 48.9209836, "lon": 2.2498082, "tags": {"bus": "yes", "name": "Jacques El\u00e9onor Ferm\u00e9", "public_transport": "stop_position"}}, {"type": "node", "id": 5074249533, "lat": 48.918093, "lon": 2.2488739, "tags": {"bus": "yes", "name": "Ostyn", "public_transport": "stop_position"}}, {"type": "node", "id": 5074249535, "lat": 48.9142423, "lon": 2.2457825, "tags": {"bus": "yes", "name": "Rue de l'Industrie", "public_transport": "stop_position"}}, {"type": "node", "id": 5074249536, "lat": 48.9097552, "lon": 2.2392997, "tags": {"bus": "yes", "name": "Gare de La Garenne-Colombes", "public_transport": "stop_position"}}, {"type": "node", "id": 5074249537, "lat": 48.9106108, "lon": 2.2419375, "tags": {"bus": "yes", "name": "Rue du Commerce", "public_transport": "stop_position"}}, {"type": "node", "id": 5074249538, "lat": 48.9064472, "lon": 2.2391358, "tags": {"bus": "yes", "name": "La Garenne-Colombes - Charlebourg", "public_transport": "stop_position"}}, {"type": "node", "id": 5074249539, "lat": 48.9027092, "lon": 2.2426638, "tags": {"bus": "yes", "name": "Rhin et Danube", "public_transport": "stop_position"}}, {"type": "node", "id": 5074249540, "lat": 48.8957331, "lon": 2.24924, "tags": {"bus": "yes", "name": "Place Charras", "public_transport": "stop_position"}}, {"type": "node", "id": 5079909002, "lat": 48.887308, "lon": 2.2794529, "tags": {"bus": "yes", "name": "Victor Hugo", "public_transport": "stop_position"}}, {"type": "node", "id": 5108167771, "lat": 48.8844402, "lon": 2.261054, "tags": {"STIF:zone": "1", "layer": "-2", "name": "Pont de Neuilly", "operator": "RATP", "public_transport": "stop_position", "railway": "stop", "ref": "2", "ref:FR:RATP": "1709", "source": "survey", "subway": "yes", "type:RATP": "metro", "wheelchair": "yes", "wikidata": "Q1344555", "wikipedia": "fr:Pont de Neuilly (m\u00e9tro de Paris)"}}, {"type": "node", "id": 5108167781, "lat": 48.8781955, "lon": 2.2814369, "tags": {"layer": "-2", "level": "-3", "location": "underground", "name": "Porte Maillot", "network": "M\u00e9tro de Paris;RATP", "operator": "RATP", "public_transport": "stop_position", "railway": "stop", "ref": "1", "start_date": "1936-11-15", "subway": "yes"}}, {"type": "node", "id": 5108167808, "lat": 48.8811252, "lon": 2.2716674, "tags": {"STIF:zone": "1", "alt_name": "Les Sablons (Jardin d'acclimatation)", "layer": "-2", "name": "Les Sablons", "name:ru": "\u041b\u0435-\u0421\u0430\u0431\u043b\u043e\u043d", "public_transport": "stop_position", "railway": "stop", "ref:FR:RATP": "1802", "subway": "yes", "type:RATP": "metro", "wheelchair": "yes", "wikidata": "Q649160", "wikipedia": "fr:Les Sablons (m\u00e9tro de Paris)"}}, {"type": "node", "id": 5108167811, "lat": 48.8848087, "lon": 2.259972, "tags": {"STIF:zone": "1", "layer": "-2", "level": "-2", "name": "Pont de Neuilly", "operator": "RATP", "public_transport": "stop_position", "railway": "stop", "ref:FR:RATP": "1709", "source": "survey", "subway": "yes", "type:RATP": "metro", "wheelchair": "yes", "wikidata": "Q1344555", "wikipedia": "fr:Pont de Neuilly (m\u00e9tro de Paris)"}}, {"type": "node", "id": 5139949022, "lat": 48.8880492, "lon": 2.2500793, "tags": {"STIF:zone": "1", "layer": "-2", "name": "Esplanade de La D\u00e9fense", "name:zh": "\u62c9\u5fb7\u82b3\u65af\u5e7f\u573a", "public_transport": "station", "railway": "station", "ref:FR:RATP": "1913", "ref:FR:STIF": "22102", "source": "STIF - 12/2016", "station": "subway", "subway": "yes", "type:RATP": "metro", "wheelchair": "yes", "wikidata": "Q1368326", "wikipedia": "fr:Esplanade de la D\u00e9fense (m\u00e9tro de Paris)"}}, {"type": "node", "id": 5139949032, "lat": 48.8882638, "lon": 2.2496022, "tags": {"STIF:zone": "1", "layer": "-2", "name": "Esplanade de La D\u00e9fense", "public_transport": "stop_position", "railway": "stop", "ref": "1", "ref:FR:RATP": "1913", "subway": "yes"}}, {"type": "node", "id": 5150632176, "lat": 48.9257575, "lon": 2.2740942, "tags": {"bus": "yes", "name": "Quatre Routes", "public_transport": "stop_position"}}, {"type": "node", "id": 5150632178, "lat": 48.9297705, "lon": 2.2725091, "tags": {"bus": "yes", "name": "Henri Robert", "public_transport": "stop_position"}}, {"type": "node", "id": 5150632188, "lat": 48.921542, "lon": 2.2779934, "tags": {"bus": "yes", "name": "Jaur\u00e8s", "public_transport": "stop_position"}}, {"type": "node", "id": 5150632190, "lat": 48.9321302, "lon": 2.2749089, "tags": {"bus": "yes", "name": "Mourinoux", "public_transport": "stop_position", "source": "survey 12-2017"}}, {"type": "node", "id": 5176134915, "lat": 48.892542, "lon": 2.2338712, "tags": {"bus": "yes", "name": "Jardins de l'Arche", "public_transport": "stop_position", "source": "https://www.iledefrance-mobilites.fr/wp-content/uploads/2017/07/n346d.pdf"}}, {"type": "node", "id": 5204549468, "lat": 48.8924976, "lon": 2.2376032, "tags": {"bus": "yes", "layer": "-1", "level": "-1", "name": "Grande Arche", "public_transport": "stop_position"}}, {"type": "node", "id": 5205001444, "lat": 48.9273316, "lon": 2.274428, "tags": {"bus": "yes", "name": "Quatre Routes - La Redoute", "public_transport": "stop_position", "source": "survey 11-2017"}}, {"type": "node", "id": 5205001446, "lat": 48.9322902, "lon": 2.2796808, "tags": {"bus": "yes", "name": "Fleming", "public_transport": "stop_position", "source": "survey 11-2017"}}, {"type": "node", "id": 5220407049, "lat": 48.8921061, "lon": 2.2381442, "tags": {"layer": "-3", "level": "-3", "location": "underground", "name": "La D\u00e9fense - Grande Arche", "network": "M\u00e9tro de Paris;RATP", "operator": "RATP", "public_transport": "stop_position", "railway": "stop", "ref": "1", "start_date": "1992-04-01", "subway": "yes"}}, {"type": "node", "id": 5261634755, "lat": 48.9209719, "lon": 2.2786344, "tags": {"bus": "yes", "name": "Jaur\u00e8s", "public_transport": "stop_position", "source": "survey 12-2017"}}, {"type": "node", "id": 5263312779, "lat": 48.9296293, "lon": 2.2747474, "tags": {"bus": "yes", "name": "Henri Robert", "public_transport": "stop_position", "source": "survey 12-2017"}}, {"type": "node", "id": 5263312780, "lat": 48.9282518, "lon": 2.2721677, "tags": {"bus": "yes", "name": "Robert Lavergne", "public_transport": "stop_position", "source": "survey 12-2017"}}, {"type": "node", "id": 5263312781, "lat": 48.9236318, "lon": 2.2756819, "tags": {"bus": "yes", "name": "Gramme", "public_transport": "stop_position", "source": "survey 12-2017"}}, {"type": "node", "id": 5264321268, "lat": 48.8892517, "lon": 2.198274, "tags": {"bus": "yes", "name": "Gabriel P\u00e9ri", "public_transport": "stop_position"}}, {"type": "node", "id": 5275097605, "lat": 48.9023964, "lon": 2.2395747, "tags": {"STIF:zone": "3", "name": "Les Fauvelles", "public_transport": "stop_position", "railway": "tram_stop", "ref:FR:RATP": "446344", "source": "RATP - 07/2012", "tram": "yes", "wheelchair": "yes"}}, {"type": "node", "id": 5294481734, "lat": 48.9505879, "lon": 2.2304301, "tags": {"bus": "yes", "name": "Gare du Val d'Argenteuil", "public_transport": "stop_position"}}, {"type": "node", "id": 5304334537, "lat": 48.9376031, "lon": 2.1582623, "tags": {"bus": "yes", "name": "Gare de Sartrouville", "public_transport": "stop_position"}}, {"type": "node", "id": 5304334543, "lat": 48.9377537, "lon": 2.1582114, "tags": {"bus": "yes", "name": "Gare de Sartrouville", "public_transport": "stop_position"}}, {"type": "node", "id": 5304334556, "lat": 48.9378331, "lon": 2.1579554, "tags": {"bus": "yes", "name": "Gare de Sartrouville", "public_transport": "stop_position"}}, {"type": "node", "id": 5306714892, "lat": 48.9610497, "lon": 2.2336655, "tags": {"bus": "yes", "name": "March\u00e9 des Coteaux", "public_transport": "stop_position"}}, {"type": "node", "id": 5307963828, "lat": 48.892069, "lon": 2.2318337, "tags": {"bus": "yes", "name": "Valmy", "public_transport": "stop_position", "source": "https://www.iledefrance-mobilites.fr/wp-content/uploads/2017/07/n346d.pdf"}}, {"type": "node", "id": 5341865154, "lat": 48.8905812, "lon": 2.2403177, "tags": {"bus": "yes", "name": "La D\u00e9fense", "public_transport": "stop_position"}}, {"type": "node", "id": 5346965459, "lat": 48.8991697, "lon": 2.2504595, "tags": {"level": "1", "local_ref": "2", "name": "Courbevoie", "network": "Transilien", "operator": "SNCF R\u00e9seau", "public_transport": "stop_position", "railway": "stop", "ref:FR:uic8": "87382200", "tactile_paving": "yes", "train": "yes", "uic_name": "courbevoie", "uic_ref": "8738220"}}, {"type": "node", "id": 5346965460, "lat": 48.8982205, "lon": 2.2482686, "tags": {"level": "1", "local_ref": "1", "name": "Courbevoie", "network": "Transilien", "operator": "SNCF R\u00e9seau", "public_transport": "stop_position", "railway": "stop", "ref:FR:uic8": "87382200", "tactile_paving": "yes", "train": "yes", "uic_name": "courbevoie", "uic_ref": "8738220"}}, {"type": "node", "id": 5347968795, "lat": 48.9371815, "lon": 2.1582648, "tags": {"STIF:zone": "4", "level": "1", "local_ref": "2bis", "name": "Sartrouville", "network": "Transilien;RER", "operator": "SNCF Gares & Connexions", "operator:wikidata": "Q3098278", "public_transport": "stop_position", "railway": "stop", "ref:FR:RATP": "1700", "train": "yes", "type:RATP": "rer", "uic_name": "sartrouville", "uic_ref": "8738641", "wheelchair": "yes", "wikidata": "Q2549086", "wikipedia": "fr:Gare de Sartrouville"}}, {"type": "node", "id": 5347968797, "lat": 48.9449765, "lon": 2.1460477, "tags": {"STIF:zone": "4", "level": "0", "local_ref": "2B", "name": "Maisons-Laffitte", "network": "Transilien;RER", "operator": "SNCF Gares & Connexions", "operator:wikidata": "Q3098278", "public_transport": "stop_position", "railway": "stop", "ref:FR:RATP": "1823", "train": "yes", "type:RATP": "rer", "uic_name": "satrouville", "uic_ref": "8738642", "wheelchair": "yes", "wikidata": "Q2153668", "wikipedia": "fr:Gare de Maisons-Laffitte"}}, {"type": "node", "id": 5401537089, "lat": 48.9313894, "lon": 2.2607775, "tags": {"level": "1", "local_ref": "B", "name": "Le Stade", "public_transport": "stop_position", "railway": "stop", "railway:position:exact": "8.086", "train": "yes"}}, {"type": "node", "id": 5562852698, "lat": 48.8961329, "lon": 2.2728307, "tags": {"bus": "yes", "name": "Villiers", "public_transport": "stop_position"}}, {"type": "node", "id": 5562852700, "lat": 48.8929509, "lon": 2.2738142, "tags": {"bus": "yes", "name": "H\u00f4pital Am\u00e9ricain", "public_transport": "stop_position"}}, {"type": "node", "id": 5562852702, "lat": 48.8929843, "lon": 2.2757767, "tags": {"bus": "yes", "name": "Place de la Lib\u00e9ration", "public_transport": "stop_position"}}, {"type": "node", "id": 5642876089, "lat": 48.8868463, "lon": 2.2003607, "tags": {"bus": "yes", "name": "Place de la Boule - Joffre", "network": "RATP", "network:wikidata": "Q474674", "operator": "RATP", "operator:wikidata": "Q643290", "public_transport": "stop_position"}}, {"type": "node", "id": 5643862571, "lat": 48.9231537, "lon": 2.2177407, "tags": {"bus": "yes", "name": "Pont de Bezons", "public_transport": "stop_position"}}, {"type": "node", "id": 5678423705, "lat": 48.882646, "lon": 2.276809, "tags": {"bus": "yes", "name": "Chartres", "public_transport": "stop_position"}}, {"type": "node", "id": 5678423707, "lat": 48.8806676, "lon": 2.2790318, "tags": {"bus": "yes", "name": "Parmentier", "public_transport": "stop_position"}}, {"type": "node", "id": 5678423708, "lat": 48.8837088, "lon": 2.2721773, "tags": {"bus": "yes", "name": "\u00c9glise Saint-Pierre", "public_transport": "stop_position"}}, {"type": "node", "id": 5678423709, "lat": 48.8845969, "lon": 2.2683246, "tags": {"bus": "yes", "name": "Sainte-Foy", "public_transport": "stop_position"}}, {"type": "node", "id": 5678423710, "lat": 48.8855281, "lon": 2.2642438, "tags": {"bus": "yes", "name": "Rue de l'\u00c9glise", "public_transport": "stop_position"}}, {"type": "node", "id": 5678423712, "lat": 48.8887873, "lon": 2.2660001, "tags": {"bus": "yes", "name": "Perronet", "public_transport": "stop_position"}}, {"type": "node", "id": 5678423713, "lat": 48.8904911, "lon": 2.2699486, "tags": {"bus": "yes", "name": "Bineau - Ch\u00e2teau", "public_transport": "stop_position"}}, {"type": "node", "id": 5679654259, "lat": 48.8925214, "lon": 2.269322, "tags": {"bus": "yes", "name": "Bineau - La Saussaye", "public_transport": "stop_position"}}, {"type": "node", "id": 5679654261, "lat": 48.8907376, "lon": 2.2654572, "tags": {"bus": "yes", "name": "Perronet", "public_transport": "stop_position"}}, {"type": "node", "id": 5679654263, "lat": 48.8887847, "lon": 2.2627094, "tags": {"bus": "yes", "name": "La Saussaye - D'Argenson", "public_transport": "stop_position"}}, {"type": "node", "id": 5679654265, "lat": 48.8878382, "lon": 2.2634575, "tags": {"bus": "yes", "name": "Ch\u00e2teau", "public_transport": "stop_position"}},