{"version": 0.6, "generator": "Overpass API 0.7.62.8 e802775f", "osm3s": {"timestamp_osm_base": "2025-12-04T23:42:26Z", "copyright": "The data included in this document is from www.openstreetmap.org. The data is made available under ODbL."}, "elements": [{"type": "node", "id": 29414560, "lat": 48.848958, "lon": 2.2754115, "tags": {"STIF:zone": "1", "bench": "yes", "bin": "no", "bus": "yes", "check_date:shelter": "2024-02-26", "highway": "bus_stop", "lit": "yes", "name": "Degas", "public_transport": "platform", "ref:FR:STIF": "8438", "shelter": "yes", "source:wheelchair": "STIF 2019-01", "survey:date": "2020-12-21", "tactile_paving": "no", "wheelchair": "no"}}, {"type": "node", "id": 29441475, "lat": 48.8629739, "lon": 2.2954966, "tags": {"STIF:zone": "1", "bench": "yes", "bin": "no", "bus": "yes", "highway": "bus_stop", "lit": "yes", "name": "Mus\u00e9e d'Art Moderne - Palais de Tokyo", "public_transport": "platform", "ref:FR:STIF": "39314", "route_ref": "72", "shelter": "yes", "source:wheelchair": "STIF 2019-01", "tactile_paving": "no", "wheelchair": "no"}}, {"type": "node", "id": 125272923, "lat": 48.8295614, "lon": 2.3220688, "tags": {"STIF:zone": "1", "bench": "yes", "bin": "no", "bus": "yes", "bus_stop:type": "Abri autobus 3,35x1,40", "highway": "bus_stop", "lit": "yes", "name": "Les Plantes", "public_transport": "platform", "ref:FR:STIF": "23613", "shelter": "yes", "source": "survey", "source:position": "opendata.paris.fr - 04/2011", "source:ref:FR:STIF": "STIF - 12/2016", "tactile_paving": "no"}}, {"type": "node", "id": 125273053, "lat": 48.8290722, "lon": 2.3230781, "tags": {"STIF:zone": "1", "bench": "yes", "bin": "no", "bus": "yes", "bus_stop:type": "Abri autobus 4x1,60", "highway": "bus_stop", "lit": "yes", "name": "Les Plantes", "public_transport": "platform", "ref:FR:STIF": "23611", "shelter": "yes", "source": "survey", "source:position": "opendata.paris.fr - 04/2011", "source:ref:FR:STIF": "STIF - 12/2016", "tactile_paving": "no", "wheelchair": "yes"}}, {"type": "node", "id": 256324752, "lat": 48.8423298, "lon": 2.3028026, "tags": {"STIF:zone": "1", "bench": "yes", "bin": "no", "bus": "yes", "bus_stop:type": "Abri autobus 3,35x1,40", "highway": "bus_stop", "lit": "yes", "name": "Cambronne - Lecourbe", "public_transport": "platform", "ref:FR:STIF": "24023", "shelter": "yes", "source": "survey", "source:position": "opendata.paris.fr - 04/2011", "source:ref:FR:STIF": "STIF - 12/2016", "tactile_paving": "no"}}, {"type": "node", "id": 256324811, "lat": 48.8407918, "lon": 2.3040665, "tags": {"STIF:zone": "1", "bus": "yes", "fixme": "Est-ce que cet arr\u00eat existe encore ? Par quelles lignes est-il desservi ?", "highway": "bus_stop", "name": "Cambronne - Vaugirard", "public_transport": "platform", "ref:FR:STIF": "24250", "route_ref": "80", "source:wheelchair": "STIF 2019-01", "wheelchair": "no"}}, {"type": "node", "id": 259282760, "lat": 48.8451514, "lon": 2.3019996, "tags": {"STIF:zone": "1", "bench": "yes", "bin": "yes", "bus": "yes", "highway": "bus_stop", "lit": "yes", "name": "Miollis", "public_transport": "platform", "ref:FR:STIF": "24266", "route_ref": "80", "shelter": "yes", "source:wheelchair": "STIF 2019-01", "tactile_paving": "no", "wheelchair": "no"}}, {"type": "node", "id": 259282789, "lat": 48.8471851, "lon": 2.3015826, "tags": {"STIF:zone": "1", "bench": "yes", "bin": "yes", "bus": "yes", "highway": "bus_stop", "lit": "yes", "name": "Cambronne", "public_transport": "platform", "ref:FR:STIF": "24263", "route_ref": "80", "shelter": "yes", "source:wheelchair": "STIF 2019-01", "tactile_paving": "no", "wheelchair": "no"}}, {"type": "node", "id": 259282878, "lat": 48.8429413, "lon": 2.3024683, "tags": {"STIF:zone": "1", "bench": "yes", "bin": "yes", "bus": "yes", "highway": "bus_stop", "lit": "no", "name": "Cambronne - Lecourbe", "public_transport": "platform", "ref:FR:STIF": "24264", "route_ref": "80", "shelter": "yes", "source:wheelchair": "STIF 2019-01", "tactile_paving": "no", "wheelchair": "no"}}, {"type": "node", "id": 259288775, "lat": 48.8285057, "lon": 2.2733973, "tags": {"STIF:zone": "2", "bench": "yes", "bin": "yes", "bus": "yes", "highway": "bus_stop", "name": "Fr\u00e8res Voisin", "public_transport": "platform", "ref:FR:STIF": "22988", "route_ref": "39;169;N13", "shelter": "yes", "source:wheelchair": "STIF 2019-01", "wheelchair": "no"}}, {"type": "node", "id": 259442664, "lat": 48.8424677, "lon": 2.3019742, "tags": {"STIF:zone": "1", "bench": "yes", "bin": "no", "bus": "yes", "highway": "bus_stop", "lit": "yes", "name": "Cambronne - Lecourbe", "public_transport": "platform", "ref:FR:STIF": "28675", "route_ref": "39;70;80;N13", "shelter": "yes", "source:wheelchair": "STIF 2019-01", "tactile_paving": "no", "wheelchair": "no"}}, {"type": "node", "id": 259442692, "lat": 48.8417672, "lon": 2.299557, "tags": {"STIF:zone": "1", "bench": "no", "bin": "yes", "bus": "yes", "highway": "bus_stop", "lit": "yes", "name": "Mairie du 15e", "public_transport": "platform", "ref:FR:STIF": "39323", "route_ref": "39;80;N13", "shelter": "no", "source:wheelchair": "STIF 2019-01", "tactile_paving": "no", "wheelchair": "no"}}, {"type": "node", "id": 259856696, "lat": 48.8439901, "lon": 2.3071137, "tags": {"STIF:zone": "1", "bench": "yes", "bin": "yes", "bus": "yes", "highway": "bus_stop", "lit": "yes", "name": "Volontaires - Lecourbe", "public_transport": "platform", "ref:FR:STIF": "23315", "route_ref": "N13;39;70", "shelter": "yes", "source:wheelchair": "STIF 2019-01", "tactile_paving": "no", "wheelchair": "no"}}, {"type": "node", "id": 259856729, "lat": 48.8446505, "lon": 2.3093262, "tags": {"STIF:zone": "1", "bench": "yes", "bin": "yes", "bus": "yes", "check_date": "2024-04-27", "highway": "bus_stop", "lit": "yes", "name": "S\u00e8vres - Lecourbe", "public_transport": "platform", "ref:FR:STIF": "37357", "route_ref": "39;70;N13", "shelter": "yes", "source:wheelchair": "STIF 2019-01", "tactile_paving": "no", "wheelchair": "no"}}, {"type": "node", "id": 259856862, "lat": 48.8466282, "lon": 2.3161638, "tags": {"STIF:zone": "1", "bench": "yes", "bin": "no", "bus": "yes", "highway": "bus_stop", "lit": "yes", "name": "H\u00f4pital des Enfants Malades", "public_transport": "platform", "ref:FR:STIF": "25746", "route_ref": "28;39;70", "shelter": "yes", "source:wheelchair": "STIF 2019-01", "tactile_paving": "no", "wheelchair": "yes"}}, {"type": "node", "id": 260016759, "lat": 48.8404472, "lon": 2.3046245, "tags": {"STIF:zone": "1", "bench": "yes", "bin": "yes", "bus": "yes", "highway": "bus_stop", "lit": "yes", "mapillary": "579112760100588", "name": "Cambronne - Vaugirard", "public_transport": "platform", "ref:FR:STIF": "22326", "route_ref": "39;70;N13;N62", "shelter": "yes", "source:wheelchair": "STIF 2019-01", "survey:date": "2022-05-18", "tactile_paving": "no", "wheelchair": "no"}}, {"type": "node", "id": 260016819, "lat": 48.8430483, "lon": 2.313091, "tags": {"STIF:zone": "1", "bench": "no", "bin": "no", "bus": "yes", "highway": "bus_stop", "lit": "yes", "name": "Pasteur \u2013 Lyc\u00e9e Buffon", "public_transport": "platform", "ref:FR:STIF": "28676", "shelter": "no", "source": "survey", "source:ref:FR:STIF": "STIF - 12/2016", "tactile_paving": "no"}}, {"type": "node", "id": 260016832, "lat": 48.8432471, "lon": 2.3126895, "tags": {"STIF:zone": "1", "bench": "yes", "bus": "yes", "highway": "bus_stop", "name": "Pasteur - Lyc\u00e9e Buffon", "public_transport": "platform", "ref:FR:STIF": "23448", "route_ref": "39;70;N13;N61", "shelter": "yes", "source:wheelchair": "STIF 2019-01", "wheelchair": "no"}}, {"type": "node", "id": 260016906, "lat": 48.8411926, "lon": 2.3215121, "tags": {"STIF:zone": "1", "bench": "yes", "bin": "no", "bus": "yes", "highway": "bus_stop", "lit": "no", "name": "Gare Montparnasse", "public_transport": "platform", "ref:FR:STIF": "37359", "shelter": "yes", "survey:date": "2020-10-23", "tactile_paving": "no", "wheelchair": "yes"}}, {"type": "node", "id": 260382054, "lat": 48.8521942, "lon": 2.3306847, "tags": {"STIF:zone": "1", "bench": "no", "bin": "no", "bus": "yes", "highway": "bus_stop", "lit": "yes", "name": "Michel Debr\u00e9", "public_transport": "platform", "ref:FR:STIF": "28673", "route_ref": "70;84;86", "shelter": "no", "source:ref:FR:STIF": "opendata STIF - 03/2017", "source:wheelchair": "STIF 2019-01", "tactile_paving": "no", "wheelchair": "yes"}}, {"type": "node", "id": 260382056, "lat": 48.8516549, "lon": 2.3278812, "tags": {"STIF:zone": "1", "bench": "yes", "bin": "no", "bus": "yes", "bus_stop:type": "Abri autobus T\u00e9l\u00e9com grand mod\u00e8le", "highway": "bus_stop", "lit": "yes", "name": "S\u00e8vres - Babylone", "public_transport": "platform", "ref:FR:STIF": "28568", "shelter": "yes", "source": "survey 09/2018", "source:position": "BDOrtho IGN 2018", "source:ref:FR:STIF": "opendata STIF - 03/2017", "tactile_paving": "no", "wheelchair": "yes"}}, {"type": "node", "id": 260382063, "lat": 48.8517884, "lon": 2.3306976, "tags": {"STIF:zone": "1", "bench": "no", "bin": "no", "bus": "yes", "highway": "bus_stop", "lit": "no", "name": "Michel Debr\u00e9", "public_transport": "platform", "ref:FR:STIF": "26749", "route_ref": "84", "shelter": "no", "source:wheelchair": "STIF 2019-01", "tactile_paving": "no", "wheelchair": "yes"}}, {"type": "node", "id": 260743999, "lat": 48.8453126, "lon": 2.3695255, "tags": {"STIF:zone": "1", "bench": "yes", "bin": "yes", "bus": "yes", "highway": "bus_stop", "lit": "yes", "name": "Quai de la Rap\u00e9e", "public_transport": "platform", "ref:FR:STIF": "36168", "route_ref": "61;91;N02;N31;77", "shelter": "yes", "source:wheelchair": "STIF 2019-01", "survey:date": "2020-12-03", "tactile_paving": "no", "wheelchair": "no"}}, {"type": "node", "id": 260744181, "lat": 48.8446351, "lon": 2.3643669, "tags": {"STIF:zone": "1", "bench": "yes", "bin": "no", "bus": "yes", "highway": "bus_stop", "lit": "no", "name": "Gare d'Austerlitz", "public_transport": "platform", "ref:FR:STIF": "37723", "route_ref": "63", "shelter": "yes", "source:wheelchair": "STIF 2019-01", "survey:date": "2020-10-20", "tactile_paving": "no", "wheelchair": "yes"}}, {"type": "node", "id": 260744184, "lat": 48.8460447, "lon": 2.372133, "tags": {"STIF:zone": "1", "bench": "yes", "bin": "no", "bus": "yes", "highway": "bus_stop", "lit": "yes", "name": "Gare de Lyon - Diderot", "public_transport": "platform", "ref:FR:RATP": "11342248", "ref:FR:STIF": "471296", "route_ref": "N144", "shelter": "yes", "source": "survey 07/2017", "tactile_paving": "yes", "type:RATP": "bus", "wheelchair": "no"}}, {"type": "node", "id": 261570338, "lat": 48.8521939, "lon": 2.326462, "tags": {"STIF:zone": "1", "bench": "yes", "bin": "yes", "bus": "yes", "bus_stop:type": "Abri autobus T\u00e9l\u00e9com grand mod\u00e8le", "highway": "bus_stop", "lit": "yes", "name": "S\u00e8vres - Babylone", "public_transport": "platform", "ref:FR:STIF": "28426", "shelter": "yes", "source": "survey 06/2018", "source:position": "BD Ortho 2018", "source:wheelchair": "STIF 2019-01", "survey:date": "2020-10-23", "tactile_paving": "no", "wheelchair": "yes"}}, {"type": "node", "id": 262239988, "lat": 48.8424229, "lon": 2.2989616, "tags": {"STIF:zone": "1", "bench": "yes", "bin": "no", "bus": "yes", "highway": "bus_stop", "lit": "yes", "name": "Mairie du 15e", "public_transport": "platform", "ref:FR:STIF": "39324", "route_ref": "70;88", "shelter": "yes", "source:wheelchair": "STIF 2019-01", "tactile_paving": "no", "wheelchair": "no"}}, {"type": "node", "id": 262241541, "lat": 48.8513259, "lon": 2.3334483, "tags": {"STIF:zone": "1", "bench": "yes", "bin": "yes", "bus": "yes", "highway": "bus_stop", "lit": "yes", "name": "\u00c9glise Saint-Sulpice", "public_transport": "platform", "ref:FR:STIF": "26781", "route_ref": "96;70;63", "shelter": "yes", "source:wheelchair": "STIF 2019-01", "tactile_paving": "no", "wheelchair": "no"}}, {"type": "node", "id": 262241577, "lat": 48.851769, "lon": 2.3274705, "tags": {"STIF:zone": "1", "bench": "yes", "bin": "no", "bus": "yes", "highway": "bus_stop", "lit": "yes", "name": "S\u00e8vres - Babylone", "public_transport": "platform", "ref:FR:STIF": "28420", "route_ref": "63;84;87", "shelter": "yes", "source:wheelchair": "STIF 2019-01", "tactile_paving": "no", "wheelchair": "yes"}}, {"type": "node", "id": 262278014, "lat": 48.8616635, "lon": 2.3149201, "tags": {"STIF:zone": "1", "bench": "yes", "bus": "yes", "covered": "yes", "highway": "bus_stop", "name": "Invalides", "passenger_information_display": "yes", "public_transport": "platform", "ref:FR:STIF": "36738", "route_ref": "93", "shelter": "yes", "source:wheelchair": "STIF 2019-01", "wheelchair": "no"}}, {"type": "node", "id": 262279588, "lat": 48.8598983, "lon": 2.314402, "tags": {"STIF:zone": "1", "bench": "yes", "bin": "no", "bus": "yes", "highway": "bus_stop", "lit": "yes", "name": "Esplanade des Invalides", "public_transport": "platform", "ref:FR:STIF": "26311", "route_ref": "69", "shelter": "yes", "source:wheelchair": "STIF 2019-01", "tactile_paving": "no", "wheelchair": "yes"}}, {"type": "node", "id": 262281221, "lat": 48.8627959, "lon": 2.3145557, "tags": {"STIF:zone": "1", "bench": "yes", "bin": "yes", "bus": "yes", "highway": "bus_stop", "lit": "yes", "name": "Pont Alexandre III", "public_transport": "platform", "ref:FR:STIF": "26744", "route_ref": "93;63;N02", "shelter": "yes", "source:wheelchair": "STIF 2019-01", "tactile_paving": "no", "wheelchair": "no"}}, {"type": "node", "id": 267314163, "lat": 48.8514047, "lon": 2.3013977, "tags": {"STIF:zone": "1", "bench": "yes", "bin": "no", "bus": "yes", "highway": "bus_stop", "name": "G\u00e9n\u00e9ral de Bollardi\u00e8re", "public_transport": "platform", "ref:FR:STIF": "36301", "route_ref": "82;80", "shelter": "yes", "source:wheelchair": "STIF 2019-01", "tactile_paving": "no", "wheelchair": "no"}}, {"type": "node", "id": 267314165, "lat": 48.8508814, "lon": 2.3003953, "tags": {"STIF:zone": "1", "bench": "yes", "bin": "no", "bus": "yes", "highway": "bus_stop", "lit": "yes", "name": "G\u00e9n\u00e9ral de Bollardi\u00e8re", "public_transport": "platform", "ref:FR:STIF": "36300", "route_ref": "80", "shelter": "yes", "source:wheelchair": "STIF 2019-01", "tactile_paving": "no", "wheelchair": "no"}}, {"type": "node", "id": 267314166, "lat": 48.85155, "lon": 2.3004421, "tags": {"STIF:zone": "1", "bench": "yes", "bin": "no", "bus": "yes", "bus_stop:type": "Abri autobus 3,35x1,40", "highway": "bus_stop", "name": "G\u00e9n\u00e9ral de Bollardi\u00e8re", "public_transport": "platform", "ref:FR:STIF": "36303", "route_ref": "82", "shelter": "yes", "source": "survey 06/2018", "source:position": "BD Ortho 2018", "source:wheelchair": "STIF 2019-01", "tactile_paving": "no", "wheelchair": "yes"}}, {"type": "node", "id": 280848106, "lat": 48.8308078, "lon": 2.3185643, "tags": {"STIF:zone": "1", "bench": "yes", "bin": "no", "bus": "yes", "bus_stop:type": "Abri autobus 4x1,60", "highway": "bus_stop", "lit": "yes", "name": "Al\u00e9sia - Didot", "public_transport": "platform", "ref:FR:STIF": "23612", "route_ref": "62", "shelter": "yes", "source": "survey", "source:position": "opendata.paris.fr - 04/2011", "source:ref:FR:STIF": "STIF - 12/2016", "tactile_paving": "no"}}, {"type": "node", "id": 280849387, "lat": 48.8306269, "lon": 2.3187317, "tags": {"STIF:zone": "1", "bench": "yes", "bin": "no", "bus": "yes", "bus_stop:type": "Abri autobus 3,35x1,40", "highway": "bus_stop", "lit": "yes", "name": "Al\u00e9sia - Didot", "public_transport": "platform", "ref:FR:STIF": "23597", "shelter": "yes", "source": "survey", "source:position": "opendata.paris.fr - 04/2011", "source:ref:FR:STIF": "STIF - 12/2016", "tactile_paving": "no"}}, {"type": "node", "id": 295350060, "lat": 48.8782993, "lon": 2.3708169, "tags": {"STIF:zone": "1", "bench": "yes", "bin": "no", "bus": "yes", "highway": "bus_stop", "lit": "yes", "name": "Colonel Fabien", "public_transport": "platform", "ref:FR:STIF": "28261", "route_ref": "46;75", "shelter": "yes", "source:wheelchair": "STIF 2019-01", "tactile_paving": "no", "wheelchair": "no"}}, {"type": "node", "id": 306912828, "lat": 48.8397095, "lon": 2.3019345, "tags": {"STIF:zone": "1", "bench": "yes", "bin": "yes", "bus": "yes", "highway": "bus_stop", "lit": "yes", "mapillary": "376448667062837", "name": "Vaugirard - Favorites", "passenger_information_display": "yes", "public_transport": "platform", "ref:FR:STIF": "39321", "route_ref": "39;70;80;88;N13;N62", "shelter": "yes", "source:wheelchair": "STIF 2019-01", "survey:date": "2020-11-27", "tactile_paving": "no", "wheelchair": "no"}}, {"type": "node", "id": 310047482, "lat": 48.8375549, "lon": 2.2958212, "tags": {"STIF:zone": "1", "bench": "yes", "bin": "no", "bus": "yes", "bus_stop:type": "Abri autobus 3,35x1,40", "highway": "bus_stop", "lit": "no", "name": "Convention - Vaugirard", "public_transport": "platform", "ref:FR:STIF": "23617", "route_ref": "62", "shelter": "yes", "source": "STIF - 12/2016", "source:position": "opendata.paris.fr - 04/2011", "tactile_paving": "no"}}, {"type": "node", "id": 315775392, "lat": 48.8277556, "lon": 2.3350602, "tags": {"STIF:zone": "1", "bench": "no", "bin": "no", "bus": "yes", "check_date:shelter": "2023-09-19", "highway": "bus_stop", "lit": "yes", "name": "Al\u00e9sia - Ren\u00e9 Coty", "public_transport": "platform", "ref:FR:STIF": "27438", "route_ref": "216;88", "shelter": "no", "source:wheelchair": "STIF 2019-01", "tactile_paving": "no", "wheelchair": "no"}}, {"type": "node", "id": 322691408, "lat": 48.8337381, "lon": 2.3083597, "tags": {"STIF:zone": "1", "bench": "yes", "bin": "no", "bus": "yes", "bus_stop:type": "Abri autobus 4x1,60", "highway": "bus_stop", "lit": "yes", "mapillary": "227366258727372", "name": "Labrouste", "public_transport": "platform", "ref:FR:STIF": "24007", "shelter": "yes", "source": "survey", "source:position": "opendata.paris.fr - 04/2011", "source:ref:FR:STIF": "STIF - 12/2016", "survey:date": "2020-11-27", "tactile_paving": "no"}}, {"type": "node", "id": 324423388, "lat": 48.8577268, "lon": 2.2802415, "tags": {"STIF:zone": "1", "bench": "yes", "bin": "no", "bus": "yes", "highway": "bus_stop", "lit": "yes", "name": "Jean Bologne", "public_transport": "platform", "ref:FR:STIF": "25097", "route_ref": "RATP line 32;32", "shelter": "yes", "source:wheelchair": "STIF 2019-01", "tactile_paving": "no", "wheelchair": "yes", "wikidata": "Q56858309"}}, {"type": "node", "id": 329130601, "lat": 48.8692186, "lon": 2.3380768, "tags": {"STIF:zone": "1", "bench": "yes", "bin": "no", "bus": "yes", "highway": "bus_stop", "lit": "yes", "name": "Richelieu - 4 Septembre", "public_transport": "platform", "ref:FR:STIF": "27320", "route_ref": "39;N16;N15", "shelter": "yes", "source:wheelchair": "STIF 2019-01", "tactile_paving": "no", "wheelchair": "no"}}, {"type": "node", "id": 331418621, "lat": 48.8950879, "lon": 2.3714758, "tags": {"STIF:zone": "1", "bench": "yes", "bin": "yes", "bus": "yes", "highway": "bus_stop", "lit": "yes", "name": "Crim\u00e9e - Aubervilliers", "public_transport": "platform", "ref:FR:STIF": "24668", "route_ref": "45;519", "shelter": "yes", "tactile_paving": "no"}}, {"type": "node", "id": 331453352, "lat": 48.8488965, "lon": 2.3721895, "tags": {"STIF:zone": "1", "bench": "yes", "bin": "no", "bus": "yes", "highway": "bus_stop", "lit": "yes", "name": "Lyon - Ledru-Rollin", "public_transport": "platform", "ref:FR:STIF": "39722", "route_ref": "20;87;65;91;N02;N11;N16", "shelter": "yes", "source:wheelchair": "STIF 2019-01", "tactile_paving": "yes", "wheelchair": "yes"}}, {"type": "node", "id": 332718408, "lat": 48.839997, "lon": 2.3043904, "tags": {"STIF:zone": "1", "bench": "yes", "bin": "no", "bus": "yes", "highway": "bus_stop", "lit": "yes", "name": "Cambronne - Vaugirard", "public_transport": "platform", "ref:FR:STIF": "28029", "route_ref": "88", "shelter": "yes", "source:wheelchair": "STIF 2019-01", "tactile_paving": "no", "wheelchair": "no"}}, {"type": "node", "id": 343646701, "lat": 48.8388115, "lon": 2.3499845, "tags": {"STIF:zone": "1", "bench": "no", "bin": "no", "bus": "yes", "highway": "bus_stop", "lit": "no", "name": "Monge - Claude Bernard", "name:RATP": "MONGE - CLAUDE BERNARD", "public_transport": "platform", "ref:FR:RATP": "11343657", "ref:FR:STIF": "25295", "route_ref": "27 Gare Saint-Lazare", "shelter": "no", "source:wheelchair": "STIF 2019-01", "tactile_paving": "no", "type:RATP": "bus", "wheelchair": "yes"}}, {"type": "node", "id": 352968784, "lat": 48.8514214, "lon": 2.291572, "tags": {"STIF:zone": "1", "bench": "yes", "bin": "no", "bus": "yes", "highway": "bus_stop", "lit": "yes", "name": "Dupleix", "public_transport": "platform", "ref:FR:STIF": "23473", "route_ref": "42", "shelter": "yes", "source:wheelchair": "STIF 2019-01", "tactile_paving": "no", "wheelchair": "no"}}, {"type": "node", "id": 395224078, "lat": 48.8334944, "lon": 2.3334291, "tags": {"STIF:zone": "1", "bench": "yes", "bin": "no", "bus": "yes", "highway": "bus_stop", "lit": "yes", "name": "Denfert Rochereau", "network": "RATP", "network:wikidata": "Q474674", "network:wikipedia": "fr:R\u00e9seau de bus RATP", "operator": "RATP", "operator:wikidata": "Q643290", "operator:wikipedia": "fr:R\u00e9gie autonome des transports parisiens", "public_transport": "platform", "ref:FR:STIF": "23567", "route_ref": "OrlyBus", "shelter": "yes", "source": "survey", "source:ref:FR:STIF": "STIF - 12/2016", "survey:date": "2020-10-20", "tactile_paving": "no", "wheelchair": "yes"}}, {"type": "node", "id": 428964183, "lat": 48.9035941, "lon": 2.3062143, "tags": {"bench": "yes", "bin": "yes", "bus": "yes", "check_date:shelter": "2024-10-18", "highway": "bus_stop", "lit": "yes", "name": "Mairie de Clichy", "public_transport": "platform", "route_ref": "174", "shelter": "yes", "tactile_paving": "no", "wheelchair": "yes"}}, {"type": "node", "id": 429387605, "lat": 48.8302119, "lon": 2.3559224, "tags": {"STIF:zone": "1", "bench": "yes", "bin": "no", "bus": "yes", "bus_stop:type": "Abri autobus 4x1,30", "highway": "bus_stop", "lit": "yes", "name": "Place d'Italie - Italie 2", "public_transport": "platform", "ref:FR:STIF": "2265", "route_ref": "47;N15", "shelter": "yes", "source": "survey", "source:ref:FR:STIF": "STIF - 12/2016", "survey:date": "2020-10-20", "tactile_paving": "no", "wheelchair": "yes"}}, {"type": "node", "id": 438054332, "lat": 48.8323872, "lon": 2.3547941, "tags": {"STIF:zone": "1", "bench": "yes", "bin": "no", "bus": "yes", "check_date:shelter": "2023-08-29", "highway": "bus_stop", "lit": "yes", "name": "Place d'Italie - Mairie du 13e", "public_transport": "platform", "ref:FR:STIF": "36944", "route_ref": "27;47;59;83;N31;N144;N15;N22;59", "shelter": "yes", "source:wheelchair": "STIF 2019-01", "survey:date": "2020-10-20", "tactile_paving": "no", "wheelchair": "no"}}, {"type": "node", "id": 441162279, "lat": 48.8237116, "lon": 2.3027297, "tags": {"STIF:zone": "3", "bench": "no", "bin": "yes", "bus": "yes", "check_date:shelter": "2023-06-12", "highway": "bus_stop", "lit": "yes", "name": "Rue Legrand", "public_transport": "platform", "ref:FR:STIF": "28164", "route_ref": "191", "shelter": "no", "source": "survey 01/2018", "source:wheelchair": "STIF 2019-01", "tactile_paving": "no", "wheelchair": "yes"}}, {"type": "node", "id": 441595818, "lat": 48.8276292, "lon": 2.3705452, "tags": {"STIF:zone": "1", "bench": "yes", "bin": "no", "bus": "yes", "highway": "bus_stop", "lit": "yes", "name": "Patay - Tolbiac", "public_transport": "platform", "ref:FR:STIF": "26676", "route_ref": "62;64", "shelter": "yes", "source:wheelchair": "STIF 2019-01", "tactile_paving": "no", "wheelchair": "no"}}, {"type": "node", "id": 441595819, "lat": 48.8280361, "lon": 2.3708966, "tags": {"STIF:zone": "1", "bench": "yes", "bin": "no", "bus": "yes", "highway": "bus_stop", "lit": "no", "name": "Patay - Tolbiac", "public_transport": "platform", "ref:FR:STIF": "2276", "route_ref": "27;N31", "shelter": "yes", "source:wheelchair": "STIF 2019-01", "tactile_paving": "no", "wheelchair": "yes"}}, {"type": "node", "id": 441595820, "lat": 48.827823, "lon": 2.3717668, "tags": {"STIF:zone": "1", "bench": "yes", "bin": "yes", "bus": "yes", "highway": "bus_stop", "lit": "yes", "name": "Patay - Tolbiac", "public_transport": "platform", "ref:FR:STIF": "23185", "route_ref": "62;64;132", "shelter": "yes", "source:wheelchair": "STIF 2019-01", "tactile_paving": "no", "wheelchair": "no"}}, {"type": "node", "id": 441595826, "lat": 48.827301, "lon": 2.3718432, "tags": {"STIF:zone": "1", "bench": "no", "bus": "yes", "highway": "bus_stop", "name": "Patay - Tolbiac", "name:RATP": "PATAY - TOLBIAC", "public_transport": "platform", "ref:FR:RATP": "11343649", "ref:FR:STIF": "25736", "route_ref": "27;132;N31", "shelter": "no", "source": "survey 2019-02", "type:RATP": "bus"}}, {"type": "node", "id": 441596055, "lat": 48.8292814, "lon": 2.3691462, "tags": {"STIF:zone": "1", "bench": "yes", "bin": "yes", "bus": "yes", "bus_stop:type": "Abri autobus T\u00e9l\u00e9com grand mod\u00e8le", "highway": "bus_stop", "lit": "yes", "name": "Jeanne d'Arc - \u00c9glise de la Gare", "name:RATP": "JEANNE D'ARC - EGLISE DE LA GARE", "public_transport": "platform", "ref:FR:RATP": "11343654", "ref:FR:STIF": "36943", "route_ref": "27", "shelter": "yes", "source": "survey 2019-02", "source:position": "BD Ortho IGN 2019", "source:wheelchair": "STIF 2019-01", "tactile_paving": "no", "type:RATP": "bus", "wheelchair": "yes"}}, {"type": "node", "id": 441596079, "lat": 48.8290223, "lon": 2.3692788, "tags": {"STIF:zone": "1", "bench": "yes", "bin": "yes", "bus": "yes", "bus_stop:type": "Abri autobus 4x1,60", "highway": "bus_stop", "lit": "yes", "name": "Jeanne d'Arc - \u00c9glise de la Gare", "name:RATP": "JEANNE D'ARC - EGLISE DE LA GARE", "public_transport": "platform", "ref:FR:RATP": "11343648", "ref:FR:STIF": "22796", "route_ref": "27", "shelter": "yes", "source": "survey 2019-02", "source:position": "BD Ortho IGN 2019", "source:wheelchair": "STIF 2019-01", "tactile_paving": "no", "type:RATP": "bus", "wheelchair": "yes"}}, {"type": "node", "id": 441596931, "lat": 48.8216976, "lon": 2.3730418, "tags": {"STIF:zone": "1", "bench": "no", "bus": "yes", "highway": "bus_stop", "lit": "no", "name": "Claude R\u00e9gaud", "name:RATP": "PORTE D'IVRY - CLAUDE REGAUD", "public_transport": "platform", "ref:FR:RATP": "11343650", "ref:FR:STIF": "37702", "route_ref": "27", "shelter": "no", "source": "survey 2019-02", "source:wheelchair": "STIF 2019-01", "type:RATP": "bus"}}, {"type": "node", "id": 441597032, "lat": 48.8214165, "lon": 2.3697681, "tags": {"STIF:zone": "1", "bench": "yes", "bin": "no", "bus": "yes", "bus_stop:type": "Abri autobus 3,35x1,40", "highway": "bus_stop", "lit": "yes", "name": "Porte d'Ivry", "name:RATP": "PORTE D'IVRY", "public_transport": "platform", "ref:FR:RATP": "11343651", "ref:FR:STIF": "36170;36169", "route_ref": "83", "shelter": "yes", "source": "survey 06/2018", "source:position": "BD Ortho 2018", "source:wheelchair": "STIF 2019-01", "tactile_paving": "no", "wheelchair": "yes"}}, {"type": "node", "id": 443481015, "lat": 48.8518145, "lon": 2.2901491, "tags": {"STIF:zone": "1", "bench": "yes", "bin": "no", "bus": "yes", "highway": "bus_stop", "lit": "yes", "name": "Docteur Finlay", "public_transport": "platform", "ref:FR:STIF": "40078", "route_ref": "42", "shelter": "yes", "source:wheelchair": "STIF 2019-01", "tactile_paving": "no", "wheelchair": "no"}}, {"type": "node", "id": 445527802, "lat": 48.8417779, "lon": 2.3558325, "tags": {"STIF:zone": "1", "bench": "yes", "bin": "no", "bus": "yes", "highway": "bus_stop", "lit": "yes", "name": "Buffon - La Mosqu\u00e9e", "public_transport": "platform", "ref:FR:STIF": "22323", "route_ref": "67;89", "shelter": "yes", "source:wheelchair": "STIF 2019-01", "tactile_paving": "no", "wheelchair": "yes"}}, {"type": "node", "id": 445621501, "lat": 48.8408769, "lon": 2.3559671, "tags": {"STIF:zone": "1", "bench": "yes", "bin": "yes", "bus": "yes", "highway": "bus_stop", "lit": "yes", "name": "Buffon - La Mosqu\u00e9e", "public_transport": "platform", "ref:FR:STIF": "28009", "route_ref": "67", "shelter": "yes", "source:wheelchair": "STIF 2019-01", "tactile_paving": "no", "wheelchair": "yes"}}, {"type": "node", "id": 450721133, "lat": 48.8377232, "lon": 2.2819757, "tags": {"STIF:zone": "1", "bench": "no", "bin": "no", "bus": "yes", "highway": "bus_stop", "lit": "yes", "name": "Vasco de Gama - Lourmel", "public_transport": "platform", "ref:FR:STIF": "28677", "route_ref": "42", "shelter": "no", "source:wheelchair": "STIF 2019-01", "tactile_paving": "yes", "wheelchair": "no"}}, {"type": "node", "id": 450721353, "lat": 48.8392267, "lon": 2.2824013, "tags": {"STIF:zone": "1", "bench": "no", "bin": "yes", "bus": "yes", "highway": "bus_stop", "lit": "yes", "name": "Lourmel - F\u00e9lix Faure", "public_transport": "platform", "ref:FR:STIF": "28678", "route_ref": "42", "shelter": "no", "source:wheelchair": "STIF 2019-01", "tactile_paving": "no", "wheelchair": "no"}}, {"type": "node", "id": 450721733, "lat": 48.838724, "lon": 2.2787238, "tags": {"STIF:zone": "1", "bench": "yes", "bin": "yes", "bus": "yes", "highway": "bus_stop", "lit": "yes", "name": "Saint-Charles - Balard", "public_transport": "platform", "ref:FR:STIF": "23465", "route_ref": "42", "shelter": "yes", "source:wheelchair": "STIF 2019-01", "tactile_paving": "no", "wheelchair": "no"}}, {"type": "node", "id": 450721743, "lat": 48.8364057, "lon": 2.2781749, "tags": {"STIF:zone": "2", "bench": "yes", "bin": "no", "bus": "yes", "highway": "bus_stop", "lit": "yes", "name": "Balard", "public_transport": "platform", "ref:FR:STIF": "471765", "route_ref": "39;169;N145", "shelter": "yes", "source:wheelchair": "STIF 2019-01", "tactile_paving": "no", "wheelchair": "no"}}, {"type": "node", "id": 470567935, "lat": 48.8345348, "lon": 2.3055831, "tags": {"STIF:zone": "1", "bench": "yes", "bin": "no", "bus": "yes", "bus_stop:type": "Abri autobus 4x1,60", "highway": "bus_stop", "lit": "yes", "mapillary": "317279213246546", "name": "Brancion - Vouill\u00e9", "public_transport": "platform", "ref:FR:STIF": "24003", "shelter": "yes", "source": "survey", "source:position": "opendata.paris.fr - 04/2011", "source:ref:FR:STIF": "STIF - 12/2016", "survey:date": "2021-02-05"}}, {"type": "node", "id": 476507829, "lat": 48.8370719, "lon": 2.2967038, "tags": {"STIF:zone": "1", "bench": "yes", "bin": "no", "bus": "yes", "bus_stop:type": "Abri autobus 4x1,30", "highway": "bus_stop", "lit": "yes", "name": "Convention - Vaugirard", "public_transport": "platform", "ref:FR:STIF": "24010", "route_ref": "62", "shelter": "yes", "source": "STIF - 12/2016", "source:position": "opendata.paris.fr - 04/2011", "tactile_paving": "no"}}, {"type": "node", "id": 476886896, "lat": 48.8428726, "lon": 2.2982525, "tags": {"STIF:zone": "1", "bench": "yes", "bin": "no", "bus": "yes", "highway": "bus_stop", "lit": "yes", "name": "P\u00e9clet", "public_transport": "platform", "ref:FR:STIF": "25760", "route_ref": "70;88", "shelter": "yes", "source:wheelchair": "STIF 2019-01", "tactile_paving": "no", "wheelchair": "no"}}, {"type": "node", "id": 480690096, "lat": 48.8266632, "lon": 2.3642995, "tags": {"STIF:zone": "1", "bench": "yes", "bin": "yes", "bus": "yes", "highway": "bus_stop", "lit": "yes", "name": "Tolbiac - Baudricourt", "public_transport": "platform", "ref:FR:STIF": "29814", "route_ref": "62;64;83", "shelter": "yes", "source:wheelchair": "STIF 2019-01", "tactile_paving": "no", "wheelchair": "no"}}, {"type": "node", "id": 480690097, "lat": 48.8268069, "lon": 2.3644285, "tags": {"STIF:zone": "1", "bench": "yes", "bin": "yes", "bus": "yes", "highway": "bus_stop", "lit": "yes", "name": "Tolbiac - Baudricourt", "public_transport": "platform", "ref:FR:STIF": "26780", "route_ref": "62;64;83", "shelter": "yes", "source:wheelchair": "STIF 2019-01", "tactile_paving": "no", "wheelchair": "no"}}, {"type": "node", "id": 486585959, "lat": 48.8267282, "lon": 2.3419955, "tags": {"STIF:zone": "1", "bench": "yes", "bin": "yes", "bus": "yes", "check_date:shelter": "2023-09-19", "highway": "bus_stop", "lit": "yes", "name": "Glaci\u00e8re - Tolbiac", "public_transport": "platform", "ref:FR:STIF": "30097", "route_ref": "21", "shelter": "yes", "source:wheelchair": "STIF 2019-01", "tactile_paving": "no", "wheelchair": "yes"}}, {"type": "node", "id": 486585992, "lat": 48.8264613, "lon": 2.3412468, "tags": {"STIF:zone": "1", "bench": "yes", "bin": "yes", "bus": "yes", "bus_stop:type": "Abri autobus 3,35x1,40", "check_date:shelter": "2023-09-19", "highway": "bus_stop", "lit": "yes", "name": "Glaci\u00e8re - Tolbiac", "public_transport": "platform", "ref:FR:STIF": "24146", "route_ref": "62", "shelter": "yes", "source": "survey", "source:position": "opendata.paris.fr - 04/2011", "source:ref:FR:STIF": "STIF - 12/2016", "tactile_paving": "no", "wheelchair": "yes"}}, {"type": "node", "id": 486586045, "lat": 48.8264236, "lon": 2.3423158, "tags": {"STIF:zone": "1", "bench": "yes", "bin": "no", "bus": "yes", "bus_stop:type": "Abri autobus 3,35x1,40", "check_date:shelter": "2024-07-02", "highway": "bus_stop", "lit": "yes", "name": "Glaci\u00e8re - Tolbiac", "public_transport": "platform", "ref:FR:STIF": "29815", "route_ref": "62;Traverse", "shelter": "yes", "source": "survey", "source:position": "opendata.paris.fr - 04/2011", "source:ref:FR:STIF": "STIF - 12/2016", "tactile_paving": "no", "wheelchair": "yes"}}, {"type": "node", "id": 489458436, "lat": 48.8534597, "lon": 2.3434984, "tags": {"STIF:zone": "1", "bench": "yes", "bin": "yes", "bus": "yes", "check_date": "2024-04-05", "highway": "bus_stop", "lit": "yes", "name": "Saint-Michel", "public_transport": "platform", "ref:FR:STIF": "40032", "route_ref": "96", "shelter": "yes", "source:wheelchair": "STIF 2019-01", "tactile_paving": "no", "wheelchair": "no"}}, {"type": "node", "id": 493423809, "lat": 48.858877, "lon": 2.4023128, "tags": {"STIF:zone": "1", "bench": "yes", "bin": "yes", "bus": "yes", "highway": "bus_stop", "lit": "yes", "name": "Pyr\u00e9n\u00e9es - Bagnolet", "public_transport": "platform", "ref:FR:STIF": "26556", "route_ref": "64", "shelter": "yes", "source:wheelchair": "STIF 2019-01", "tactile_paving": "no", "wheelchair": "no"}}, {"type": "node", "id": 493761033, "lat": 48.8397002, "lon": 2.4034407, "tags": {"STIF:zone": "1", "bench": "yes", "bin": "no", "bus": "yes", "highway": "bus_stop", "lit": "yes", "name": "Louis Braille", "name:etymology:wikidata": "Q93182", "public_transport": "platform", "ref:FR:STIF": "27105", "route_ref": "64", "shelter": "yes", "source:wheelchair": "STIF 2019-01", "tactile_paving": "no", "wheelchair": "no"}}, {"type": "node", "id": 497913166, "lat": 48.8613013, "lon": 2.3744391, "tags": {"STIF:zone": "1", "bench": "yes", "bin": "no", "bus": "yes", "highway": "bus_stop", "lit": "yes", "name": "Saint-Ambroise", "public_transport": "platform", "ref:FR:STIF": "23657", "route_ref": "56", "shelter": "yes", "source:wheelchair": "STIF 2019-01", "tactile_paving": "no", "wheelchair": "no"}}, {"type": "node", "id": 500308183, "lat": 48.8636497, "lon": 2.3704915, "tags": {"STIF:zone": "1", "bench": "yes", "bin": "yes", "bus": "yes", "highway": "bus_stop", "lit": "no", "name": "Oberkampf - Richard Lenoir", "public_transport": "platform", "ref:FR:STIF": "23651", "route_ref": "56", "shelter": "yes", "source:wheelchair": "STIF 2019-01", "tactile_paving": "no", "wheelchair": "no"}}, {"type": "node", "id": 500326300, "lat": 48.8653822, "lon": 2.3674891, "tags": {"STIF:zone": "1", "bench": "yes", "bin": "yes", "bus": "yes", "highway": "bus_stop", "lit": "yes", "name": "Jean-Pierre Timbaud", "public_transport": "platform", "ref:FR:STIF": "37544", "route_ref": "56", "shelter": "yes", "source:wheelchair": "STIF 2019-01", "tactile_paving": "no", "wheelchair": "no"}}, {"type": "node", "id": 500348428, "lat": 48.8662708, "lon": 2.3660014, "tags": {"STIF:zone": "1", "bench": "yes", "bin": "no", "bus": "yes", "highway": "bus_stop", "lit": "yes", "name": "R\u00e9publique - Voltaire", "public_transport": "platform", "ref:FR:STIF": "23668", "route_ref": "56", "shelter": "yes", "source:wheelchair": "STIF 2019-01", "tactile_paving": "no", "wheelchair": "no"}}, {"type": "node", "id": 507875817, "lat": 48.819614, "lon": 2.3594521, "tags": {"STIF:zone": "1", "bench": "yes", "bin": "no", "bus": "yes", "highway": "bus_stop", "lit": "yes", "name": "Porte d'Italie", "public_transport": "platform", "ref:FR:STIF": "470687", "route_ref": "N22;N15;N144;47", "shelter": "yes", "source:wheelchair": "STIF 2019-01", "survey:date": "2020-10-20", "tactile_paving": "no", "wheelchair": "no"}}, {"type": "node", "id": 530556928, "lat": 48.8461657, "lon": 2.3546275, "tags": {"STIF:zone": "1", "bench": "yes", "bin": "no", "bus": "yes", "highway": "bus_stop", "lit": "yes", "name": "Jussieu", "public_transport": "platform", "ref:FR:STIF": "9138", "route_ref": "67;89", "shelter": "yes", "source:wheelchair": "STIF 2019-01", "tactile_paving": "no", "wheelchair": "yes"}}, {"type": "node", "id": 540661257, "lat": 48.8895461, "lon": 2.3352459, "tags": {"STIF:zone": "1", "bench": "yes", "bus": "yes", "highway": "bus_stop", "name": "Square Caulaincourt", "public_transport": "platform", "ref:FR:STIF": "26342", "route_ref": "80", "shelter": "yes", "source:wheelchair": "STIF 2019-01", "tactile_paving": "no", "wheelchair": "no"}}, {"type": "node", "id": 540662545, "lat": 48.8894553, "lon": 2.3359673, "tags": {"STIF:zone": "1", "bench": "yes", "bin": "no", "bus": "yes", "highway": "bus_stop", "lit": "yes", "name": "Square Caulaincourt", "public_transport": "platform", "ref:FR:STIF": "26344", "route_ref": "80", "shelter": "yes", "source:wheelchair": "STIF 2019-01", "tactile_paving": "no", "wheelchair": "no"}}, {"type": "node", "id": 546475307, "lat": 48.8751263, "lon": 2.324898, "tags": {"STIF:zone": "1", "bench": "yes", "bin": "no", "bus": "yes", "highway": "bus_stop", "lit": "yes", "name": "Gare Saint-Lazare", "name:RATP": "GARE SAINT-LAZARE", "public_transport": "platform", "ref:FR:STIF": "30011", "route_ref": "29", "shelter": "yes", "source:wheelchair": "STIF 2019-01", "tactile_paving": "no", "type:RATP": "bus", "wheelchair": "yes"}}, {"type": "node", "id": 554915792, "lat": 48.818139, "lon": 2.3257549, "tags": {"STIF:zone": "2", "bench": "yes", "bin": "no", "bus": "yes", "highway": "bus_stop", "lit": "yes", "name": "Gabriel P\u00e9ri", "public_transport": "platform", "ref:FR:STIF": "37800", "route_ref": "188;187;197;N14;N21;125", "shelter": "yes", "source": "survey 2019-05", "source:position": "BDOrtho IGN 2019", "source:wheelchair": "STIF 2019-01", "tactile_paving": "no", "wheelchair": "yes"}}, {"type": "node", "id": 554936397, "lat": 48.8184842, "lon": 2.3253592, "tags": {"STIF:zone": "2", "bench": "yes", "bin": "yes", "bus": "yes", "highway": "bus_stop", "lit": "yes", "name": "Gabriel P\u00e9ri", "public_transport": "platform", "ref:FR:STIF": "36328", "route_ref": "187;188;197;N14;N21", "shelter": "yes", "source:wheelchair": "STIF 2019-01", "tactile_paving": "no", "wheelchair": "yes"}}, {"type": "node", "id": 564612972, "lat": 48.9028707, "lon": 2.2754985, "tags": {"STIF:zone": "3", "bench": "yes", "bus": "yes", "highway": "bus_stop", "name": "Place Mermoz", "public_transport": "platform", "ref:FR:STIF": "24312", "route_ref": "175", "shelter": "yes", "source:wheelchair": "STIF 2019-01", "tactile_paving": "no", "wheelchair": "no"}}, {"type": "node", "id": 571720053, "lat": 48.8273299, "lon": 2.3050575, "tags": {"STIF:zone": "1", "bench": "yes", "bin": "no", "bus": "yes", "highway": "bus_stop", "lit": "yes", "name": "Porte de Vanves", "public_transport": "platform", "ref:FR:STIF": "460489", "shelter": "yes", "survey:date": "2020-10-23", "tactile_paving": "no", "wheelchair": "yes"}}, {"type": "node", "id": 582742784, "lat": 48.856735, "lon": 2.3043968, "tags": {"STIF:zone": "1", "bench": "yes", "bin": "yes", "bus": "yes", "highway": "bus_stop", "lit": "yes", "name": "Bosquet - Grenelle", "public_transport": "platform", "ref:FR:STIF": "22765", "route_ref": "80;92", "shelter": "yes", "source:wheelchair": "STIF 2019-01", "tactile_paving": "no", "wheelchair": "no"}}, {"type": "node", "id": 582742868, "lat": 48.8584313, "lon": 2.3035608, "tags": {"STIF:zone": "1", "bench": "yes", "bin": "yes", "bus": "yes", "highway": "bus_stop", "name": "Bosquet - Saint-Dominique", "public_transport": "platform", "ref:FR:STIF": "22766", "route_ref": "80;92", "shelter": "yes", "source:wheelchair": "STIF 2019-01", "tactile_paving": "no", "wheelchair": "no"}}, {"type": "node", "id": 582750180, "lat": 48.8548656, "lon": 2.3055095, "tags": {"STIF:zone": "1", "bus": "yes", "highway": "bus_stop", "name": "\u00c9cole Militaire", "public_transport": "platform", "ref:FR:STIF": "20122", "route_ref": "80", "shelter": "yes", "source:wheelchair": "STIF 2019-01", "wheelchair": "no"}}, {"type": "node", "id": 583012083, "lat": 48.8223493, "lon": 2.3419861, "tags": {"STIF:zone": "1", "bench": "yes", "bin": "yes", "bus": "yes", "check_date:shelter": "2024-07-02", "highway": "bus_stop", "lit": "yes", "name": "Amiral Mouchez - Charbonnel", "public_transport": "platform", "ref:FR:STIF": "30101", "route_ref": "21", "shelter": "yes", "source:wheelchair": "STIF 2019-01", "tactile_paving": "no", "wheelchair": "yes", "wikidata": "Q56742307"}}, {"type": "node", "id": 589365381, "lat": 48.8775821, "lon": 2.394214, "tags": {"STIF:zone": "1", "bench": "yes", "bin": "yes", "bus": "yes", "highway": "bus_stop", "lit": "yes", "name": "Place des F\u00eates", "public_transport": "platform", "ref:FR:STIF": "26272", "route_ref": "48;60", "shelter": "yes", "source": "survey 10/2017", "source:wheelchair": "STIF 2019-01", "tactile_paving": "no", "wheelchair": "no"}}, {"type": "node", "id": 589386016, "lat": 48.8769107, "lon": 2.3925209, "tags": {"STIF:zone": "1", "bench": "yes", "bin": "yes", "bus": "yes", "highway": "bus_stop", "lit": "yes", "name": "Place des F\u00eates", "public_transport": "platform", "ref:FR:STIF": "26274", "route_ref": "48,60;60", "shelter": "yes", "source:wheelchair": "STIF 2019-01", "tactile_paving": "yes", "wheelchair": "no"}}, {"type": "node", "id": 589397548, "lat": 48.8758906, "lon": 2.3949846, "tags": {"STIF:zone": "1", "bench": "yes", "bin": "no", "bus": "yes", "highway": "bus_stop", "name": "Pix\u00e9r\u00e9court", "public_transport": "platform", "ref:FR:STIF": "36678", "route_ref": "60", "shelter": "yes", "source:wheelchair": "STIF 2019-01", "tactile_paving": "no", "wheelchair": "no"}}, {"type": "node", "id": 589397552, "lat": 48.87558, "lon": 2.3949365, "tags": {"STIF:zone": "1", "bench": "yes", "bin": "no", "bus": "yes", "highway": "bus_stop", "name": "Pix\u00e9r\u00e9court", "public_transport": "platform", "ref:FR:STIF": "36687", "route_ref": "60", "shelter": "yes", "source:wheelchair": "STIF 2019-01", "tactile_paving": "no", "wheelchair": "no"}}, {"type": "node", "id": 594054657, "lat": 48.8440363, "lon": 2.3549671, "tags": {"STIF:zone": "1", "bench": "no", "bin": "yes", "bus": "yes", "highway": "bus_stop", "lit": "yes", "name": "Cuvier - Jardin des Plantes", "public_transport": "platform", "ref:FR:STIF": "37364", "route_ref": "67;89", "shelter": "no", "source:wheelchair": "STIF 2019-01", "tactile_paving": "no", "wheelchair": "yes"}}, {"type": "node", "id": 594054677, "lat": 48.8438208, "lon": 2.3548148, "tags": {"STIF:zone": "1", "bench": "yes", "bin": "no", "bus": "yes", "highway": "bus_stop", "lit": "yes", "name": "Cuvier - Jardin des Plantes", "public_transport": "platform", "ref:FR:STIF": "28022", "route_ref": "67", "shelter": "yes", "source:wheelchair": "STIF 2019-01", "tactile_paving": "no", "wheelchair": "yes"}}, {"type": "node", "id": 594054683, "lat": 48.8463892, "lon": 2.354382, "tags": {"STIF:zone": "1", "bench": "yes", "bin": "no", "bus": "yes", "highway": "bus_stop", "lit": "yes", "name": "Jussieu", "public_transport": "platform", "ref:FR:STIF": "28018", "route_ref": "67", "shelter": "yes", "source:wheelchair": "STIF 2019-01", "tactile_paving": "no", "wheelchair": "yes"}}, {"type": "node", "id": 594054715, "lat": 48.8362089, "lon": 2.3589589, "tags": {"STIF:zone": "1", "bench": "yes", "bin": "no", "bus": "yes", "highway": "bus_stop", "lit": "yes", "name": "Jenner - Jeanne d'Arc", "public_transport": "platform", "ref:FR:STIF": "22830", "route_ref": "57;67", "shelter": "yes", "source:wheelchair": "STIF 2019-01", "tactile_paving": "no", "wheelchair": "no"}}, {"type": "node", "id": 594054719, "lat": 48.8358502, "lon": 2.3588339, "tags": {"STIF:zone": "1", "bench": "yes", "bin": "no", "bus": "yes", "highway": "bus_stop", "lit": "yes", "name": "Jenner - Jeanne d'Arc", "public_transport": "platform", "ref:FR:STIF": "427371", "route_ref": "57;67", "shelter": "yes", "source:wheelchair": "STIF 2019-01", "survey:date": "2020-10-20", "tactile_paving": "no", "wheelchair": "no"}}, {"type": "node", "id": 594054730, "lat": 48.8387053, "lon": 2.3570294, "tags": {"STIF:zone": "1", "bench": "no", "bin": "no", "bus": "yes", "highway": "bus_stop", "lit": "no", "name": "Saint-Marcel - Jeanne d'Arc", "public_transport": "platform", "ref:FR:STIF": "28011", "route_ref": "57;67", "shelter": "no", "source:wheelchair": "STIF 2019-01", "tactile_paving": "no", "wheelchair": "yes"}}, {"type": "node", "id": 594054737, "lat": 48.8381506, "lon": 2.3564225, "tags": {"STIF:zone": "1", "bench": "yes", "bin": "yes", "bus": "yes", "highway": "bus_stop", "lit": "yes", "name": "Saint-Marcel - Jeanne d'Arc", "public_transport": "platform", "ref:FR:STIF": "26745", "route_ref": "67;91;N02;24", "shelter": "yes", "source:wheelchair": "STIF 2019-01", "survey:date": "2020-10-20", "tactile_paving": "no", "wheelchair": "no"}}, {"type": "node", "id": 596083022, "lat": 48.8912514, "lon": 2.3180377, "tags": {"STIF:zone": "1", "bench": "yes", "bin": "no", "bus": "yes", "highway": "bus_stop", "lit": "yes", "name": "Brochant - Cardinet", "public_transport": "platform", "ref:FR:STIF": "22810", "shelter": "yes", "source:wheelchair": "STIF 2019-01", "survey:date": "2020-09-27", "tactile_paving": "no", "wheelchair": "yes"}}, {"type": "node", "id": 596084024, "lat": 48.8894988, "lon": 2.3164221, "tags": {"STIF:zone": "1", "bench": "no", "bin": "no", "bus": "yes", "highway": "bus_stop", "lit": "yes", "mapillary": "776217756712743", "name": "Parc Martin Luther King", "public_transport": "platform", "ref:FR:STIF": "40838", "shelter": "no", "source:wheelchair": "STIF 2019-01", "survey:date": "2021-08-04", "tactile_paving": "no", "wheelchair": "yes"}}, {"type": "node", "id": 596084636, "lat": 48.8876554, "lon": 2.314435, "tags": {"STIF:zone": "1", "bench": "yes", "bin": "yes", "bus": "yes", "departures_board": "realtime", "highway": "bus_stop", "lit": "yes", "name": "Pont Cardinet", "public_transport": "platform", "ref:FR:STIF": "36273", "shelter": "yes", "source:wheelchair": "STIF 2019-01", "tactile_paving": "no", "wheelchair": "yes"}}, {"type": "node", "id": 597264735, "lat": 48.8834887, "lon": 2.3280195, "tags": {"STIF:zone": "1", "bench": "yes", "bin": "no", "bus": "yes", "highway": "bus_stop", "lit": "yes", "mapillary": "536224184427980", "name": "Place de Clichy", "public_transport": "platform", "ref:FR:STIF": "19734", "shelter": "yes", "source:wheelchair": "STIF 2019-01", "survey:date": "2020-12-21", "tactile_paving": "no", "wheelchair": "no"}}, {"type": "node", "id": 597266315, "lat": 48.8875818, "lon": 2.3175042, "tags": {"STIF:zone": "1", "bench": "no", "bin": "no", "bus": "yes", "check_date": "2024-10-05", "check_date:lit": "2024-10-05", "highway": "bus_stop", "lit": "yes", "mapillary": "222533572615903", "name": "Pont Cardinet - Batignolles", "public_transport": "platform", "ref:FR:STIF": "41652", "route_ref": "La Traverse;66", "shelter": "no", "source:wheelchair": "STIF 2019-01", "tactile_paving": "no", "wheelchair": "yes"}}, {"type": "node", "id": 597266470, "lat": 48.8862467, "lon": 2.3188432, "tags": {"STIF:zone": "1", "bench": "no", "bin": "no", "bus": "yes", "check_date": "2024-04-26", "highway": "bus_stop", "lit": "no", "name": "Lobligeois", "public_transport": "platform", "ref:FR:STIF": "27112", "route_ref": "La Traverse;66", "shelter": "no", "source:wheelchair": "STIF 2019-01", "tactile_paving": "no", "wheelchair": "yes"}}, {"type": "node", "id": 597269902, "lat": 48.8889945, "lon": 2.3161087, "tags": {"STIF:zone": "1", "bench": "no", "bin": "no", "bus": "yes", "highway": "bus_stop", "lit": "no", "mapillary": "590864295515690", "name": "Parc Martin Luther King", "public_transport": "platform", "ref:FR:STIF": "427588", "shelter": "no", "source:wheelchair": "STIF 2019-01", "survey:date": "2021-08-04", "tactile_paving": "no", "wheelchair": "yes"}}, {"type": "node", "id": 597269958, "lat": 48.8912412, "lon": 2.3182914, "tags": {"STIF:zone": "1", "bench": "yes", "bin": "no", "bus": "yes", "highway": "bus_stop", "lit": "yes", "name": "Brochant - Cardinet", "public_transport": "platform", "ref:FR:STIF": "22811", "shelter": "yes", "source:wheelchair": "STIF 2019-01", "survey:date": "2020-09-27", "tactile_paving": "no", "wheelchair": "yes"}}, {"type": "node", "id": 597270287, "lat": 48.8904358, "lon": 2.3205767, "tags": {"STIF:zone": "1", "bench": "yes", "bin": "no", "bus": "yes", "highway": "bus_stop", "lit": "yes", "name": "Rue des Moines", "public_transport": "platform", "ref:FR:STIF": "8414", "route_ref": "54;74;N15;N51", "shelter": "yes", "source:wheelchair": "STIF 2019-01", "tactile_paving": "no", "wheelchair": "yes"}}, {"type": "node", "id": 597271655, "lat": 48.8878006, "lon": 2.3255735, "tags": {"STIF:zone": "1", "bench": "yes", "bin": "yes", "bus": "yes", "highway": "bus_stop", "lit": "yes", "name": "La Fourche", "public_transport": "platform", "ref:FR:STIF": "8419", "route_ref": "54;74;21", "shelter": "yes", "source:wheelchair": "STIF 2019-01", "tactile_paving": "no", "wheelchair": "no"}}, {"type": "node", "id": 597413356, "lat": 48.8848492, "lon": 2.3064953, "tags": {"STIF:zone": "1", "bench": "yes", "bin": "no", "bus": "yes", "bus_stop:type": "Abri autobus 4x1,30", "check_date:shelter": "2025-01-14", "highway": "bus_stop", "lit": "yes", "name": "Jouffroy d'Abbans - Malesherbes", "public_transport": "platform", "ref:FR:STIF": "22812", "route_ref": "31", "shelter": "yes", "source": "survey 06/2017", "source:position": "opendata.paris.fr - 04/2011", "tactile_paving": "no"}}, {"type": "node", "id": 597413601, "lat": 48.8813537, "lon": 2.3003856, "tags": {"STIF:zone": "1", "bench": "yes", "bus": "yes", "bus_stop:type": "Abri autobus 4x1,60", "check_date:shelter": "2024-05-19", "highway": "bus_stop", "name": "Wagram \u2013 Courcelles", "public_transport": "platform", "ref:FR:STIF": "39721", "route_ref": "31", "shelter": "yes", "source": "survey 06/2017", "source:position": "opendata.paris.fr - 04/2011", "tactile_paving": "no"}}, {"type": "node", "id": 597413631, "lat": 48.8775401, "lon": 2.2986435, "tags": {"STIF:zone": "1", "bench": "yes", "bin": "no", "bus": "yes", "highway": "bus_stop", "lit": "yes", "name": "Ternes", "public_transport": "platform", "ref:FR:STIF": "28254", "route_ref": "31;93;43;341", "shelter": "yes", "source:wheelchair": "STIF 2019-01", "tactile_paving": "no", "wheelchair": "yes"}}, {"type": "node", "id": 597413784, "lat": 48.8748496, "lon": 2.297394, "tags": {"STIF:zone": "1", "bench": "yes", "bin": "no", "bus": "yes", "bus_stop:type": "Abri autobus 3,35x1,40", "highway": "bus_stop", "lit": "yes", "name": "Charles de Gaulle - \u00c9toile", "public_transport": "platform", "ref:FR:STIF": "40839;40840", "route_ref": "31", "shelter": "yes", "survey:date": "2020-12-03", "tactile_paving": "no"}}, {"type": "node", "id": 597414618, "lat": 48.8704345, "lon": 2.3060391, "tags": {"STIF:zone": "1", "bench": "yes", "bin": "yes", "bus": "yes", "highway": "bus_stop", "lit": "yes", "mapillary": "749484432406168", "name": "La Bo\u00e9tie - Champs-\u00c9lys\u00e9es", "passenger_information_display": "yes", "public_transport": "platform", "ref:FR:STIF": "34162", "route_ref": "73;N24", "shelter": "yes", "source:wheelchair": "STIF 2019-01", "survey:date": "2020-12-23", "tactile_paving": "yes", "wheelchair": "yes"}}, {"type": "node", "id": 597748310, "lat": 48.8366159, "lon": 2.3104662, "tags": {"STIF:zone": "1", "bench": "yes", "bin": "no", "bus": "yes", "highway": "bus_stop", "lit": "yes", "name": "Falgui\u00e8re", "public_transport": "platform", "ref:FR:STIF": "28263", "route_ref": "95;88", "shelter": "yes", "source:wheelchair": "STIF 2019-01", "tactile_paving": "no", "wheelchair": "no"}}, {"type": "node", "id": 599796544, "lat": 48.8929231, "lon": 2.3267985, "tags": {"STIF:zone": "1", "bench": "yes", "bin": "yes", "bus": "yes", "bus_stop:type": "Abri autobus 3,35x1,40", "highway": "bus_stop", "lit": "yes", "name": "Guy M\u00f4quet", "public_transport": "platform", "ref:FR:STIF": "26563", "route_ref": "31", "shelter": "yes", "source": "survey 06/2017", "source:position": "opendata.paris.fr - 04/2011", "tactile_paving": "no", "wheelchair": "yes"}}, {"type": "node", "id": 599796547, "lat": 48.8931223, "lon": 2.3281296, "tags": {"STIF:zone": "1", "bench": "yes", "bin": "no", "bus": "yes", "bus_stop:type": "Abri autobus 3,35x1,40", "highway": "bus_stop", "lit": "yes", "name": "Guy M\u00f4quet", "public_transport": "platform", "ref:FR:STIF": "29001", "route_ref": "31", "shelter": "yes", "source": "survey 06/2017", "source:position": "opendata.paris.fr - 04/2011", "tactile_paving": "no"}}, {"type": "node", "id": 599803556, "lat": 48.8975222, "lon": 2.3299275, "tags": {"STIF:zone": "1", "bench": "yes", "bus": "yes", "highway": "bus_stop", "name": "Porte de Saint-Ouen", "public_transport": "platform", "ref:FR:STIF": "26007", "route_ref": "341", "shelter": "yes", "source:wheelchair": "STIF 2018-07", "wheelchair": "yes"}}, {"type": "node", "id": 599812701, "lat": 48.8922272, "lon": 2.3240507, "tags": {"STIF:zone": "1", "bench": "yes", "bin": "no", "bus": "yes", "bus_stop:type": "Abri autobus T\u00e9l\u00e9com grand mod\u00e8le", "highway": "bus_stop", "lit": "yes", "name": "Moines - Davy", "public_transport": "platform", "ref:FR:STIF": "26562", "shelter": "yes", "source": "survey 06/2017", "source:position": "opendata.paris.fr - 04/2011", "tactile_paving": "no", "wheelchair": "yes"}}, {"type": "node", "id": 599812705, "lat": 48.8921486, "lon": 2.3230976, "tags": {"STIF:zone": "1", "bench": "yes", "bin": "no", "bus": "yes", "bus_stop:type": "Abri autobus 4x1,60", "highway": "bus_stop", "lit": "no", "name": "Moines - Davy", "public_transport": "platform", "ref:FR:STIF": "26566", "shelter": "yes", "source": "survey 06/2017", "source:position": "opendata.paris.fr - 04/2011", "tactile_paving": "no", "wheelchair": "yes"}}, {"type": "node", "id": 605188968, "lat": 48.8781363, "lon": 2.2797659, "tags": {"STIF:zone": "1", "bench": "yes", "bus": "yes", "bus_stop:type": "Abri autobus 8x1,60", "highway": "bus_stop", "name": "Neuilly Porte Maillot", "public_transport": "platform", "ref:FR:STIF": "491153", "shelter": "yes", "source:ref:FR:STIF": "\u00cele-de-France Mobilit\u00e9s - 01/2024", "source:wheelchair": "STIF 2019-01", "survey:date": "2020-12-03", "wheelchair": "yes"}}, {"type": "node", "id": 605193224, "lat": 48.8806176, "lon": 2.2839844, "tags": {"STIF:zone": "1", "bench": "yes", "bus": "yes", "bus_stop:type": "Abri autobus 4x1,30", "highway": "bus_stop", "name": "Porte des Ternes - Anny Flore", "public_transport": "platform", "ref:FR:STIF": "37396", "route_ref": "PC", "shelter": "yes", "source:wheelchair": "STIF 2019-01", "survey:date": "2020-12-03", "wheelchair": "yes"}}, {"type": "node", "id": 605202003, "lat": 48.8858165, "lon": 2.2942158, "tags": {"bus": "yes", "highway": "bus_stop", "local_ref": "92", "name": "Porte de Champerret", "public_transport": "platform", "shelter": "yes", "wheelchair": "yes"}}, {"type": "node", "id": 605202048, "lat": 48.8863332, "lon": 2.2929786, "tags": {"STIF:zone": "1", "bus": "yes", "bus_stop:type": "Abri autobus T\u00e9l\u00e9com petit mod\u00e8le", "highway": "bus_stop", "name": "Porte de Champerret", "public_transport": "platform", "ref:FR:STIF": "422802", "shelter": "yes", "source": "survey 09/2017", "source:position": "BDOrtho IGN 2018", "wheelchair": "yes"}}, {"type": "node", "id": 605202415, "lat": 48.8874458, "lon": 2.2942814, "tags": {"STIF:zone": "2", "bench": "no", "bus": "yes", "highway": "bus_stop", "name": "Porte de Courcelles", "public_transport": "platform", "ref:FR:STIF": "24610", "shelter": "no", "source": "survey 11-2017", "wheelchair": "yes"}}, {"type": "node", "id": 605202467, "lat": 48.8869949, "lon": 2.2950351, "tags": {"STIF:zone": "1", "bench": "yes", "bin": "no", "bus": "yes", "bus_stop:type": "Abri autobus 4x1,30", "check_date:shelter": "2024-04-30", "highway": "bus_stop", "lit": "yes", "name": "Porte de Courcelles", "public_transport": "platform", "ref:FR:STIF": "8060", "shelter": "yes", "source": "survey 09/2017", "source:position": "BDOrtho IGN 2018", "tactile_paving": "no", "wheelchair": "yes"}}, {"type": "node", "id": 605203285, "lat": 48.8896279, "lon": 2.3034455, "tags": {"STIF:zone": "1", "bench": "yes", "bin": "no", "bus": "yes", "bus_stop:type": "Abri autobus 4x1,60", "highway": "bus_stop", "lit": "yes", "name": "Marguerite Long - Porte d'Asni\u00e8res", "public_transport": "platform", "ref:FR:STIF": "40814", "shelter": "yes", "tactile_paving": "no", "wheelchair": "yes"}}, {"type": "node", "id": 609204619, "lat": 48.8355974, "lon": 2.3973505, "tags": {"STIF:zone": "1", "bench": "yes", "bin": "yes", "bus": "yes", "highway": "bus_stop", "lit": "yes", "name": "Wattignies - Gravelle", "public_transport": "platform", "ref:FR:STIF": "23512", "route_ref": "77;87", "shelter": "yes", "source:wheelchair": "STIF 2019-01", "tactile_paving": "no", "wheelchair": "no", "wikidata": "Q56859090"}}, {"type": "node", "id": 609205021, "lat": 48.8329527, "lon": 2.3958863, "tags": {"STIF:zone": "1", "bench": "yes", "bin": "yes", "bus": "yes", "highway": "bus_stop", "lit": "no", "name": "Charenton - Jardiniers", "public_transport": "platform", "ref:FR:STIF": "25338", "route_ref": "N35;87;77", "shelter": "yes", "source:wheelchair": "STIF 2019-01", "tactile_paving": "no", "wheelchair": "no", "wikidata": "Q56857248"}}, {"type": "node", "id": 609208872, "lat": 48.8342855, "lon": 2.4004288, "tags": {"STIF:zone": "1", "bench": "yes", "bin": "yes", "bus": "yes", "highway": "bus_stop", "lit": "yes", "name": "Porte de Reuilly", "public_transport": "platform", "ref:FR:STIF": "25340", "route_ref": "87", "shelter": "yes", "source:wheelchair": "STIF 2019-01", "tactile_paving": "no", "wheelchair": "no"}}, {"type": "node", "id": 609210145, "lat": 48.8322566, "lon": 2.3976172, "tags": {"STIF:zone": "2", "bench": "no", "bin": "yes", "bus": "yes", "highway": "bus_stop", "lit": "no", "name": "Porte de Charenton", "public_transport": "platform", "ref:FR:STIF": "40518", "route_ref": "87", "shelter": "no", "source:wheelchair": "STIF 2019-01", "tactile_paving": "no", "wheelchair": "no"}}, {"type": "node", "id": 609212553, "lat": 48.8356048, "lon": 2.3860649, "tags": {"STIF:zone": "1", "bench": "yes", "bin": "yes", "bus": "yes", "highway": "bus_stop", "lit": "yes", "name": "Dijon - Lachambeaudie", "public_transport": "platform", "ref:FR:STIF": "39469", "route_ref": "24;64;N32", "shelter": "yes", "source:wheelchair": "STIF 2019-01", "tactile_paving": "no", "wheelchair": "no", "wikidata": "Q56743139"}}, {"type": "node", "id": 613504955, "lat": 48.8389826, "lon": 2.3887198, "tags": {"STIF:zone": "1", "bench": "yes", "bin": "yes", "bus": "yes", "highway": "bus_stop", "lit": "yes", "name": "Dugommier", "public_transport": "platform", "ref:FR:STIF": "25894", "route_ref": "N35;87;71;77;215", "shelter": "yes", "tactile_paving": "no"}}, {"type": "node", "id": 613504959, "lat": 48.8384864, "lon": 2.3884977, "tags": {"STIF:zone": "1", "bench": "yes", "bin": "yes", "bus": "yes", "highway": "bus_stop", "lit": "yes", "name": "Dugommier", "public_transport": "platform", "ref:FR:STIF": "25895", "route_ref": "N35;87;71;77", "shelter": "yes", "source:wheelchair": "STIF 2019-01", "survey:date": "2020-12-03", "tactile_paving": "no", "wheelchair": "no"}}, {"type": "node", "id": 613504986, "lat": 48.8350811, "lon": 2.3929995, "tags": {"STIF:zone": "1", "bench": "yes", "bin": "no", "bus": "yes", "highway": "bus_stop", "lit": "no", "name": "Nicolai", "public_transport": "platform", "ref:FR:STIF": "25339", "route_ref": "77;87", "shelter": "yes", "source:wheelchair": "STIF 2019-01", "tactile_paving": "no", "wheelchair": "no"}}, {"type": "node", "id": 615215002, "lat": 48.8511477, "lon": 2.3438069, "tags": {"STIF:zone": "1", "bench": "yes", "bin": "yes", "bus": "yes", "highway": "bus_stop", "lit": "yes", "name": "Cluny", "public_transport": "platform", "ref:FR:STIF": "26788", "route_ref": "63;86;87", "shelter": "yes", "source:wheelchair": "STIF 2019-01", "tactile_paving": "no", "wheelchair": "no"}}, {"type": "node", "id": 616253577, "lat": 48.8348982, "lon": 2.3047212, "tags": {"STIF:zone": "1", "bench": "yes", "bin": "yes", "bus": "yes", "bus_stop:type": "Abri autobus 3,35x1,40", "highway": "bus_stop", "lit": "yes", "mapillary": "475499420391978", "name": "Brancion - Vouill\u00e9", "passenger_information_display": "yes", "public_transport": "platform", "ref:FR:STIF": "23609", "shelter": "yes", "source": "survey", "source:position": "opendata.paris.fr - 04/2011", "source:ref:FR:STIF": "STIF - 12/2016", "survey:date": "2021-02-05", "tactile_paving": "no"}}, {"type": "node", "id": 616255372, "lat": 48.8354693, "lon": 2.3059122, "tags": {"STIF:zone": "1", "bench": "yes", "bin": "no", "bus": "yes", "check_date:bench": "2021-05-26", "highway": "bus_stop", "name": "Brancion - Vouill\u00e9", "public_transport": "platform", "ref:FR:STIF": "23327", "shelter": "yes", "source": "survey", "source:ref:FR:STIF": "STIF - 12/2016", "tactile_paving": "no"}}, {"type": "node", "id": 617271755, "lat": 48.8324357, "lon": 2.3563018, "tags": {"STIF:zone": "1", "bench": "yes", "bin": "no", "bus": "yes", "highway": "bus_stop", "lit": "yes", "name": "Place d'Italie - Mairie du XIIIe", "public_transport": "platform", "ref:FR:STIF": "22798", "route_ref": "57;67;N31;N144", "shelter": "yes", "source:wheelchair": "STIF 2019-01", "survey:date": "2020-10-20", "tactile_paving": "no", "wheelchair": "no"}}, {"type": "node", "id": 617751854, "lat": 48.8372769, "lon": 2.3453746, "tags": {"STIF:zone": "1", "bench": "no", "bin": "yes", "bus": "yes", "highway": "bus_stop", "lit": "yes", "name": "Port Royal - Berthollet", "public_transport": "platform", "ref:FR:STIF": "22960", "shelter": "no", "source:wheelchair": "STIF 2019-01", "survey:date": "2020-10-23", "tactile_paving": "yes", "wheelchair": "yes"}}, {"type": "node", "id": 617751909, "lat": 48.8373952, "lon": 2.3460949, "tags": {"STIF:zone": "1", "bench": "yes", "bin": "yes", "bus": "yes", "highway": "bus_stop", "lit": "yes", "name": "Port Royal - Berthollet", "public_transport": "platform", "ref:FR:STIF": "26746", "shelter": "yes", "source:wheelchair": "STIF 2019-01", "survey:date": "2020-10-23", "tactile_paving": "no", "wheelchair": "no"}}, {"type": "node", "id": 617751926, "lat": 48.8379605, "lon": 2.3456162, "tags": {"STIF:zone": "1", "bench": "no", "bin": "no", "bus": "yes", "highway": "bus_stop", "lit": "yes", "name": "Port Royal - Berthollet", "public_transport": "platform", "ref:FR:STIF": "30107", "shelter": "no", "source:wheelchair": "STIF 2019-01", "survey:date": "2020-10-23", "tactile_paving": "no", "wheelchair": "yes"}}, {"type": "node", "id": 617753178, "lat": 48.8368868, "lon": 2.352293, "tags": {"STIF:zone": "1", "bench": "yes", "bin": "no", "bus": "yes", "highway": "bus_stop", "lit": "yes", "name": "Les Gobelins", "public_transport": "platform", "ref:FR:STIF": "26884", "route_ref": "N01;91", "shelter": "yes", "source:wheelchair": "STIF 2019-01", "survey:date": "2020-10-20", "tactile_paving": "no", "wheelchair": "no"}}, {"type": "node", "id": 617911742, "lat": 48.8224821, "lon": 2.2845938, "tags": {"STIF:zone": "2", "bench": "yes", "bin": "yes", "bus": "yes", "highway": "bus_stop", "line_ref": "126, 189", "lit": "yes", "name": "Place du Mar\u00e9chal de Lattre de Tassigny", "public_transport": "platform", "ref:FR:STIF": "27735", "shelter": "yes", "source": "survey", "source:ref:FR:STIF": "STIF - 12/2016", "tactile_paving": "no"}}, {"type": "node", "id": 617911744, "lat": 48.8227141, "lon": 2.284536, "tags": {"STIF:zone": "2", "bench": "yes", "bin": "yes", "bus": "yes", "highway": "bus_stop", "lit": "yes", "name": "Place du Mar\u00e9chal de Lattre de Tassigny", "public_transport": "platform", "ref:FR:STIF": "27736", "route_ref": "126, 189", "shelter": "yes", "source": "survey", "source:position": "BDOrtho IGN 2018", "source:ref:FR:STIF": "STIF - 12/2016", "tactile_paving": "no"}}, {"type": "node", "id": 617912851, "lat": 48.8269626, "lon": 2.2788837, "tags": {"STIF:zone": "2", "bench": "yes", "bin": "yes", "bus": "yes", "check_date:shelter": "2023-05-23", "highway": "bus_stop", "lit": "yes", "name": "Corentin Celton", "public_transport": "platform", "ref:FR:STIF": "27730", "shelter": "yes", "source": "survey 05/2018", "source:position": "BDOrtho IGN 2018", "source:ref:FR:STIF": "STIF - 12/2016", "tactile_paving": "no"}}, {"type": "node", "id": 617912852, "lat": 48.8272307, "lon": 2.2788938, "tags": {"STIF:zone": "2", "bench": "yes", "bin": "yes", "bus": "yes", "highway": "bus_stop", "lit": "yes", "name": "Corentin Celton", "public_transport": "platform", "ref:FR:STIF": "37066", "route_ref": "126, 189", "shelter": "yes", "source": "survey", "source:position": "BDOrtho IGN 2018", "source:ref:FR:STIF": "STIF - 12/2016", "tactile_paving": "no", "wheelchair": "no"}}, {"type": "node", "id": 617913662, "lat": 48.8280213, "lon": 2.2728397, "tags": {"STIF:zone": "2", "bench": "yes", "bin": "no", "bus": "yes", "bus_stop:type": "Abri autobus 4x1,60", "check_date": "2024-09-26", "check_date:lit": "2024-09-26", "highway": "bus_stop", "lit": "yes", "name": "Victor Hugo", "public_transport": "platform", "ref:FR:STIF": "28640", "shelter": "yes", "source": "survey", "source:position": "BDOrtho IGN 2018", "source:ref:FR:STIF": "STIF - 12/2016", "tactile_paving": "no"}}, {"type": "node", "id": 617913664, "lat": 48.8278253, "lon": 2.2733643, "tags": {"STIF:zone": "2", "bench": "yes", "bin": "yes", "bus": "yes", "bus_stop:type": "Abri autobus 4x1,60", "check_date:shelter": "2024-10-20", "highway": "bus_stop", "lit": "no", "name": "Victor Hugo", "public_transport": "platform", "ref:FR:STIF": "37214", "shelter": "yes", "source": "survey", "source:position": "opendata.paris.fr - 04/2011", "source:ref:FR:STIF": "STIF - 12/2016", "tactile_paving": "no"}}, {"type": "node", "id": 621111110, "lat": 48.8206418, "lon": 2.3016449, "tags": {"bench": "yes", "bin": "yes", "bus": "yes", "disused:highway": "bus_stop", "highway": "bus_stop", "public_transport": "platform", "shelter": "yes", "tactile_paving": "no"}}, {"type": "node", "id": 621111888, "lat": 48.8193114, "lon": 2.2991847, "tags": {"STIF:zone": "2", "bench": "yes", "bin": "yes", "bus": "yes", "highway": "bus_stop", "lit": "yes", "name": "Gabriel P\u00e9ri - Andr\u00e9 Coin", "public_transport": "platform", "ref:FR:STIF": "28751", "route_ref": "126;191", "shelter": "yes", "source:wheelchair": "STIF 2019-01", "tactile_paving": "no", "wheelchair": "yes"}}, {"type": "node", "id": 622295990, "lat": 48.8406165, "lon": 2.3454041, "tags": {"STIF:zone": "1", "bench": "no", "bin": "yes", "bus": "yes", "highway": "bus_stop", "lit": "no", "name": "Berthollet - Vauquelin", "public_transport": "platform", "ref:FR:STIF": "25291", "shelter": "no", "source:wheelchair": "STIF 2019-01", "survey:date": "2020-10-23", "tactile_paving": "no", "wheelchair": "no"}}, {"type": "node", "id": 622295991, "lat": 48.8416124, "lon": 2.3435087, "tags": {"STIF:zone": "1", "bench": "yes", "bin": "no", "bus": "yes", "highway": "bus_stop", "lit": "yes", "name": "Feuillantines", "public_transport": "platform", "ref:FR:STIF": "9120", "shelter": "yes", "source:wheelchair": "STIF 2019-01", "survey:date": "2020-10-23", "tactile_paving": "no", "wheelchair": "yes"}}, {"type": "node", "id": 622295992, "lat": 48.8441265, "lon": 2.3422382, "tags": {"STIF:zone": "1", "bench": "no", "bin": "no", "bus": "yes", "highway": "bus_stop", "lit": "yes", "name": "Saint-Jacques - Gay-Lussac", "public_transport": "platform", "ref:FR:STIF": "30106", "shelter": "no", "source:wheelchair": "STIF 2019-01", "survey:date": "2020-10-23", "tactile_paving": "no", "wheelchair": "yes"}}, {"type": "node", "id": 622295993, "lat": 48.8465718, "lon": 2.3410087, "tags": {"STIF:zone": "1", "bench": "yes", "bin": "no", "bus": "yes", "description": "arr\u00eat temporaire pendant les travaux du Grand Paris", "highway": "bus_stop", "lit": "yes", "name": "Luxembourg", "public_transport": "platform", "ref:FR:STIF": "27069", "shelter": "no", "source:wheelchair": "STIF 2019-01", "survey:date": "2020-10-23", "tactile_paving": "no", "temporary": "yes", "wheelchair": "yes"}}, {"type": "node", "id": 622303212, "lat": 48.8500936, "lon": 2.343422, "tags": {"STIF:zone": "1", "bench": "yes", "bin": "no", "bus": "yes", "highway": "bus_stop", "lit": "yes", "name": "Cluny", "public_transport": "platform", "ref:FR:STIF": "26355", "route_ref": "63;86;87", "shelter": "yes", "source:wheelchair": "STIF 2019-01", "tactile_paving": "yes", "wheelchair": "yes"}}, {"type": "node", "id": 622303214, "lat": 48.8505979, "lon": 2.3460921, "tags": {"STIF:zone": "1", "bench": "yes", "bin": "no", "bus": "yes", "highway": "bus_stop", "lit": "yes", "name": "Dante", "public_transport": "platform", "ref:FR:STIF": "28418", "route_ref": "47;63;N22;N15;87", "shelter": "yes", "source:wheelchair": "STIF 2019-01", "tactile_paving": "no", "wheelchair": "no"}}, {"type": "node", "id": 630397895, "lat": 48.831935, "lon": 2.359608, "tags": {"STIF:zone": "1", "bench": "yes", "bin": "no", "bus": "yes", "highway": "bus_stop", "lit": "yes", "name": "Les Alpes", "public_transport": "platform", "ref:FR:STIF": "10077", "route_ref": "27;61", "shelter": "yes", "source:wheelchair": "STIF 2019-01", "survey:date": "2020-10-20", "tactile_paving": "no", "wheelchair": "no"}}, {"type": "node", "id": 631918620, "lat": 48.8372482, "lon": 2.3905912, "tags": {"STIF:zone": "1", "bench": "yes", "bin": "yes", "bus": "yes", "highway": "bus_stop", "lit": "yes", "name": "Charenton - Wattignies", "public_transport": "platform", "ref:FR:STIF": "27101", "route_ref": "64", "shelter": "yes", "source:wheelchair": "STIF 2019-01", "tactile_paving": "no", "wheelchair": "no"}}, {"type": "node", "id": 633158292, "lat": 48.8531568, "lon": 2.2797641, "tags": {"STIF:zone": "1", "bench": "yes", "bin": "yes", "bus": "yes", "bus_stop:type": "Abri autobus 4x1,60", "highway": "bus_stop", "lit": "yes", "name": "Radio France", "public_transport": "platform", "ref:FR:STIF": "35808;25756", "route_ref:substitution": "RER C", "shelter": "yes", "source": "survey 01/2018", "source:position": "opendata.paris.fr - 04/2011", "source:ref:FR:STIF": "opendata STIF - 03/2017", "source:wheelchair": "STIF 2019-01", "tactile_paving": "no", "wheelchair": "yes"}}, {"type": "node", "id": 637680774, "lat": 48.8978806, "lon": 2.3452784, "tags": {"STIF:zone": "1", "bench": "yes", "bin": "no", "bus": "yes", "highway": "bus_stop", "lit": "yes", "name": "Porte de Clignancourt", "public_transport": "platform", "ref:FR:STIF": "8389", "route_ref": "341;137", "shelter": "yes", "source:wheelchair": "STIF 2019-01", "tactile_paving": "no", "wheelchair": "yes"}}, {"type": "node", "id": 638572250, "lat": 48.8496564, "lon": 2.3422322, "tags": {"STIF:zone": "1", "bench": "yes", "bin": "yes", "bus": "yes", "highway": "bus_stop", "lit": "yes", "name": "Les \u00c9coles", "public_transport": "platform", "ref:FR:STIF": "8432", "route_ref": "Bus 21, 27, 38, 85, N14, N21;21;85;N14;N21", "shelter": "yes", "source:wheelchair": "STIF 2019-01", "tactile_paving": "no", "wheelchair": "yes"}}, {"type": "node", "id": 638572251, "lat": 48.8498541, "lon": 2.342514, "tags": {"STIF:zone": "1", "bench": "yes", "bin": "no", "bus": "yes", "highway": "bus_stop", "lit": "yes", "name": "Les \u00c9coles", "public_transport": "platform", "ref:FR:STIF": "22962", "route_ref": "Bus 21, 27, 38, 85, N14, N21;21;85;N14;N21", "shelter": "yes", "source:wheelchair": "STIF 2019-01", "tactile_paving": "no", "wheelchair": "yes"}}, {"type": "node", "id": 646559102, "lat": 48.8650774, "lon": 2.3027492, "tags": {"STIF:zone": "1", "bench": "yes", "bus": "yes", "highway": "bus_stop", "name": "Alma - Marceau", "public_transport": "platform", "ref:FR:STIF": "22770", "route_ref": "42 80 Bb;80;42", "shelter": "no", "source:wheelchair": "STIF 2019-01", "wheelchair": "no"}}, {"type": "node", "id": 671900051, "lat": 48.8612248, "lon": 2.2843543, "tags": {"STIF:zone": "1", "bench": "yes", "bin": "no", "bus": "yes", "highway": "bus_stop", "lit": "yes", "name": "Scheffer", "public_transport": "platform", "ref:FR:STIF": "18206", "route_ref": "22;N53", "shelter": "yes", "source:wheelchair": "STIF 2019-01", "tactile_paving": "no", "wheelchair": "yes"}}, {"type": "node", "id": 671900076, "lat": 48.8611818, "lon": 2.2837696, "tags": {"STIF:zone": "1", "bench": "yes", "bin": "no", "bus": "yes", "highway": "bus_stop", "lit": "yes", "name": "Scheffer", "public_transport": "platform", "ref:FR:STIF": "39920", "route_ref": "22;N53;32", "shelter": "yes", "source:wheelchair": "STIF 2019-01", "tactile_paving": "no", "wheelchair": "no"}}, {"type": "node", "id": 676888667, "lat": 48.8519282, "lon": 2.3433897, "tags": {"STIF:zone": "1", "bench": "yes", "bin": "no", "bus": "yes", "highway": "bus_stop", "lit": "yes", "name": "Saint-Michel - Saint-Germain", "public_transport": "platform", "ref:FR:STIF": "26619", "route_ref": "21;27;38;85;N14;N21;N122", "shelter": "yes", "source:wheelchair": "STIF 2019-01", "tactile_paving": "no", "wheelchair": "yes"}}, {"type": "node", "id": 677174963, "lat": 48.8549237, "lon": 2.3477855, "tags": {"bench": "no", "bin": "no", "bus": "yes", "highway": "bus_stop", "lit": "yes", "name": "Cit\u00e9 - Parvis Notre-Dame", "public_transport": "platform", "ref:FR:STIF": "24443", "shelter": "no", "survey:date": "2021-01-09", "tactile_paving": "no"}}, {"type": "node", "id": 681370195, "lat": 48.8651536, "lon": 2.3438914, "tags": {"STIF:zone": "1", "bench": "yes", "bin": "yes", "bus": "yes", "bus_stop:type": "Abri autobus 3,35x1,40", "check_date:shelter": "2022-01-04", "highway": "bus_stop", "lit": "yes", "name": "Louvre - \u00c9tienne Marcel", "name:RATP": "LOUVRE - ETIENNE MARCEL", "public_transport": "platform", "ref:FR:RATP": "11343978", "ref:FR:STIF": "29446", "route_ref": "29", "shelter": "yes", "source:position": "opendata.paris.fr - 04/2011", "source:wheelchair": "STIF 2019-01", "tactile_paving": "no", "type:RATP": "bus", "wheelchair": "yes"}}, {"type": "node", "id": 681370228, "lat": 48.8648952, "lon": 2.3444365, "tags": {"STIF:zone": "1", "bench": "yes", "bin": "no", "bus": "yes", "highway": "bus_stop", "lit": "yes", "name": "\u00c9tienne Marcel - Montmartre", "public_transport": "platform", "ref:FR:RATP": "11343936", "ref:FR:STIF": "29444", "shelter": "yes", "survey:date": "2021-01-07", "tactile_paving": "no", "type:RATP": "bus", "wikidata": "Q56858694"}}, {"type": "node", "id": 681534878, "lat": 48.8659426, "lon": 2.3405257, "tags": {"STIF:zone": "1", "bench": "no", "bin": "yes", "bus": "yes", "highway": "bus_stop", "lit": "yes", "name": "Victoires", "name:RATP": "VICTOIRES", "public_transport": "platform", "ref:FR:RATP": "11343979", "ref:FR:STIF": "29438", "route_ref": "29", "shelter": "no", "source:wheelchair": "STIF 2019-01", "tactile_paving": "no", "type:RATP": "bus", "wheelchair": "limited", "wheelchair:description": "Les bus en IdF sont adapt\u00e9s et une plateforme aide les PMRs a monter \u00e0 bord. Il faut n\u00e9anmoins souvent quelqu'un pour les aider car la pente peut \u00eatre rude.", "wikidata": "Q56858150"}}, {"type": "node", "id": 684454421, "lat": 48.8462766, "lon": 2.2862472, "tags": {"STIF:zone": "1", "bench": "yes", "bin": "yes", "bus": "yes", "highway": "bus_stop", "lit": "yes", "name": "Charles Michels", "public_transport": "platform", "ref:FR:STIF": "40007", "route_ref": "70;88", "shelter": "yes", "source:wheelchair": "STIF 2019-01", "tactile_paving": "no", "wheelchair": "no"}}, {"type": "node", "id": 687096881, "lat": 48.8700786, "lon": 2.3390402, "tags": {"STIF:zone": "1", "bench": "yes", "bin": "no", "bus": "yes", "highway": "bus_stop", "lit": "yes", "name": "Richelieu - 4 Septembre", "public_transport": "platform", "ref:FR:STIF": "26766", "route_ref": "39;67;85", "shelter": "yes", "source:wheelchair": "STIF 2019-01", "tactile_paving": "no", "wheelchair": "no"}}, {"type": "node", "id": 687956650, "lat": 48.8686991, "lon": 2.3407908, "tags": {"STIF:zone": "1", "bench": "yes", "bin": "no", "bus": "yes", "bus_stop:type": "Abri autobus T\u00e9l\u00e9com type Champs-Elys\u00e9es", "highway": "bus_stop", "lit": "yes", "name": "Bourse", "public_transport": "platform", "ref:FR:RATP": "11336382", "ref:FR:STIF": "28399", "shelter": "yes", "survey:date": "2020-12-29", "tactile_paving": "no", "wheelchair": "yes"}}, {"type": "node", "id": 689346586, "lat": 48.8655238, "lon": 2.3433148, "tags": {"STIF:zone": "1", "bench": "yes", "bin": "no", "bus": "yes", "highway": "bus_stop", "lit": "yes", "name": "Louvre - \u00c9tienne Marcel", "public_transport": "platform", "ref:FR:STIF": "22803", "route_ref": "67;85;N16;N15", "shelter": "yes", "source:wheelchair": "STIF 2019-01", "tactile_paving": "no", "wheelchair": "yes"}}, {"type": "node", "id": 690290744, "lat": 48.8277565, "lon": 2.3319745, "tags": {"STIF:zone": "1", "bench": "yes", "bin": "yes", "bus": "yes", "bus_stop:type": "Abri autobus 3,35x1,40", "highway": "bus_stop", "lit": "yes", "name": "La Tombe Issoire", "public_transport": "platform", "ref": "arret de bus 62", "ref:FR:STIF": "26776", "route_ref": "62", "shelter": "yes", "source": "survey", "source:position": "opendata.paris.fr - 04/2011", "source:ref:FR:STIF": "STIF - 12/2016", "tactile_paving": "no", "wheelchair": "yes"}}, {"type": "node", "id": 690901859, "lat": 48.8371827, "lon": 2.3914709, "tags": {"STIF:zone": "1", "bench": "no", "bin": "no", "bus": "yes", "highway": "bus_stop", "lit": "yes", "name": "Charenton - Wattignies", "public_transport": "platform", "ref:FR:STIF": "25336", "route_ref": "77;87", "shelter": "no", "source:wheelchair": "STIF 2019-01", "tactile_paving": "no", "wheelchair": "no"}}, {"type": "node", "id": 691294066, "lat": 48.8647258, "lon": 2.3456776, "tags": {"STIF:zone": "1", "bench": "yes", "bin": "no", "bus": "yes", "highway": "bus_stop", "lit": "yes", "name": "\u00c9tienne Marcel - Montmartre", "name:RATP": "ETIENNE MARCEL - MONTMARTRE", "public_transport": "platform", "ref:FR:RATP": "11343977", "ref:FR:STIF": "29436", "route_ref": "29", "shelter": "no", "source:wheelchair": "STIF 2019-01", "tactile_paving": "no", "type:RATP": "bus", "wheelchair": "yes", "wikidata": "Q56858327"}}, {"type": "node", "id": 691614200, "lat": 48.8665409, "lon": 2.3508119, "tags": {"STIF:zone": "1", "bench": "yes", "bin": "no", "bus": "yes", "bus_stop:type": "Abri autobus 4x1,60", "check_date:shelter": "2022-08-28", "highway": "bus_stop", "lit": "yes", "name": "R\u00e9aumur - S\u00e9bastopol", "name:RATP": "REAUMUR - SEBASTOPOL", "public_transport": "platform", "ref:FR:RATP": "11342236", "ref:FR:STIF": "39797", "route_ref": "20", "shelter": "yes", "source": "survey 07/2017", "source:position": "opendata.paris.fr - 04/2011", "source:ref:FR:STIF": "opendata STIF - 03/2017", "tactile_paving": "no", "type:RATP": "bus"}}, {"type": "node", "id": 694740223, "lat": 48.8502634, "lon": 2.3592827, "tags": {"STIF:zone": "1", "bench": "yes", "bin": "yes", "bus": "yes", "highway": "bus_stop", "lit": "yes", "name": "Pont Sully - Quai de B\u00e9thune", "public_transport": "platform", "ref:FR:STIF": "27228", "route_ref": "86;87", "shelter": "yes", "source": "survey 06/2018", "source:position": "BD Ortho 2018", "source:wheelchair": "STIF 2019-01", "tactile_paving": "no", "wheelchair": "yes"}}, {"type": "node", "id": 697185100, "lat": 48.8580533, "lon": 2.3480821, "tags": {"STIF:zone": "1", "bench": "yes", "bin": "yes", "bus": "yes", "highway": "bus_stop", "lit": "yes", "name": "Ch\u00e2telet", "public_transport": "platform", "ref:FR:STIF": "39789;464018", "shelter": "yes", "source:wheelchair": "STIF 2019-01", "survey:date": "2020-12-03", "tactile_paving": "no", "wheelchair": "yes"}}, {"type": "node", "id": 697185101, "lat": 48.8582968, "lon": 2.3482191, "tags": {"STIF:zone": "1", "bench": "yes", "bin": "no", "bus": "yes", "highway": "bus_stop", "lit": "yes", "name": "Ch\u00e2telet", "public_transport": "platform", "ref:FR:STIF": "39789;41401", "shelter": "yes", "source:wheelchair": "STIF 2019-01", "survey:date": "2020-12-03", "tactile_paving": "no", "wheelchair": "no"}}, {"type": "node", "id": 699080325, "lat": 48.8538053, "lon": 2.35671, "tags": {"STIF:zone": "1", "bench": "yes", "bin": "no", "bus": "yes", "highway": "bus_stop", "lit": "yes", "name": "Pont Marie", "public_transport": "platform", "ref:FR:STIF": "28008", "route_ref": "67;72", "shelter": "yes", "source:wheelchair": "STIF 2019-01", "survey:date": "2021-01-09", "tactile_paving": "no", "wheelchair": "no"}}, {"type": "node", "id": 699193856, "lat": 48.8561354, "lon": 2.3575146, "tags": {"STIF:zone": "1", "bench": "yes", "bus": "yes", "highway": "bus_stop", "lit": "yes", "name": "Rue Vieille du Temple - Mairie du 4e", "public_transport": "platform", "ref:FR:STIF": "36948", "route_ref": "69;96;N16", "shelter": "yes", "source:wheelchair": "STIF 2019-01", "tactile_paving": "no", "wheelchair": "no"}}, {"type": "node", "id": 699897135, "lat": 48.8577201, "lon": 2.3480868, "tags": {"STIF:zone": "1", "bench": "yes", "bin": "no", "bus": "yes", "bus_stop:type": "Abri autobus 4x1,30", "highway": "bus_stop", "lit": "yes", "name": "Ch\u00e2telet", "public_transport": "platform", "ref:FR:STIF": "39793;41401;428015", "shelter": "yes", "survey:date": "2020-12-03", "tactile_paving": "no"}}, {"type": "node", "id": 701533581, "lat": 48.8792548, "lon": 2.389757, "tags": {"STIF:zone": "1", "bench": "yes", "bin": "no", "bus": "yes", "highway": "bus_stop", "lit": "yes", "name": "Botzaris", "public_transport": "platform", "ref:FR:STIF": "26262", "route_ref": "60;48", "shelter": "yes", "source:wheelchair": "STIF 2019-01", "tactile_paving": "no", "wheelchair": "no"}}, {"type": "node", "id": 701537684, "lat": 48.8601661, "lon": 2.3565322, "tags": {"STIF:zone": "1", "bench": "yes", "bin": "yes", "bus": "yes", "highway": "bus_stop", "lit": "yes", "name": "Archives - Rambuteau", "name:RATP": "ARCHIVES - RAMBUTEAU", "public_transport": "platform", "ref:FR:RATP": "11343941", "ref:FR:STIF": "29433", "shelter": "no", "source:ref:FR:STIF": "opendata STIF - 03/2017", "tactile_paving": "no"}}, {"type": "node", "id": 701601114, "lat": 48.8574275, "lon": 2.3991581, "tags": {"STIF:zone": "1", "bench": "yes", "bin": "no", "bus": "yes", "bus_stop:type": "Abri autobus 3,35x1,40", "check_date:shelter": "2023-05-13", "highway": "bus_stop", "lit": "yes", "name": "La R\u00e9union", "public_transport": "platform", "ref:FR:STIF": "26327", "route_ref": "76", "shelter": "yes", "source": "survey 09/2018", "source:position": "BDortho IGN 2018", "source:wheelchair": "STIF 2019-01", "tactile_paving": "no", "wheelchair": "yes"}}, {"type": "node", "id": 701601116, "lat": 48.8620854, "lon": 2.400206, "tags": {"STIF:zone": "1", "bench": "yes", "bin": "no", "bus": "yes", "highway": "bus_stop", "lit": "yes", "name": "Ramus", "public_transport": "platform", "ref:FR:STIF": "29421", "route_ref": "26;64", "shelter": "yes", "source:wheelchair": "STIF 2019-01", "tactile_paving": "no", "wheelchair": "no"}}, {"type": "node", "id": 701601117, "lat": 48.861426, "lon": 2.4001621, "tags": {"STIF:zone": "1", "bench": "yes", "bin": "yes", "bus": "yes", "highway": "bus_stop", "name": "Ramus", "public_transport": "platform", "ref:FR:STIF": "29415", "route_ref": "26;64", "shelter": "yes", "source:wheelchair": "STIF 2019-01", "tactile_paving": "no", "wheelchair": "no"}}, {"type": "node", "id": 701601118, "lat": 48.864469, "lon": 2.398906, "tags": {"STIF:zone": "1", "bench": "no", "bin": "yes", "bus": "yes", "highway": "bus_stop", "lit": "yes", "name": "Gambetta - Pyr\u00e9n\u00e9es", "public_transport": "platform", "ref:FR:STIF": "463610", "route_ref": "26;64", "shelter": "no", "source": "survey 2019-04-21", "source:wheelchair": "STIF 2019-01", "tactile_paving": "no", "type:RATP": "bus", "wheelchair": "no"}}, {"type": "node", "id": 701601122, "lat": 48.8530029, "lon": 2.4060914, "tags": {"STIF:zone": "1", "bench": "yes", "bin": "yes", "bus": "yes", "highway": "bus_stop", "lit": "yes", "name": "Mara\u00eechers", "public_transport": "platform", "ref:FR:STIF": "36295", "route_ref": "26;64", "shelter": "yes", "source:wheelchair": "STIF 2019-01", "tactile_paving": "no", "wheelchair": "no"}}, {"type": "node", "id": 701601123, "lat": 48.8522579, "lon": 2.4060752, "tags": {"STIF:zone": "1", "bench": "yes", "bin": "yes", "bus": "yes", "highway": "bus_stop", "lit": "yes", "name": "Mara\u00eechers", "public_transport": "platform", "ref:FR:STIF": "26557", "route_ref": "26;64", "shelter": "yes", "source:wheelchair": "STIF 2019-01", "tactile_paving": "no", "wheelchair": "no"}}, {"type": "node", "id": 701601125, "lat": 48.8480869, "lon": 2.4062423, "tags": {"STIF:zone": "1", "bench": "yes", "bin": "yes", "bus": "yes", "highway": "bus_stop", "lit": "yes", "name": "Cours de Vincennes", "public_transport": "platform", "ref:FR:STIF": "18204", "route_ref": "26;64", "shelter": "yes", "source:wheelchair": "STIF 2019-01", "tactile_paving": "no", "wheelchair": "no"}}, {"type": "node", "id": 701601128, "lat": 48.8577657, "lon": 2.399557, "tags": {"STIF:zone": "1", "bench": "yes", "bin": "no", "bus": "yes", "bus_stop:type": "Abri autobus 3,35x1,40", "check_date:shelter": "2023-05-13", "highway": "bus_stop", "lit": "yes", "name": "La R\u00e9union", "public_transport": "platform", "ref:FR:STIF": "26320", "route_ref": "76;76", "shelter": "yes", "source": "survey 09/2018", "source:position": "BDOrtho IGN 2018", "source:wheelchair": "STIF 2019-01", "tactile_paving": "no", "wheelchair": "yes"}}, {"type": "node", "id": 701601130, "lat": 48.8595686, "lon": 2.4017103, "tags": {"STIF:zone": "1", "bench": "yes", "bin": "no", "bus": "yes", "highway": "bus_stop", "lit": "yes", "name": "Pyr\u00e9n\u00e9es - Bagnolet", "public_transport": "platform", "ref:FR:STIF": "26550", "route_ref": "26;64", "shelter": "yes", "source:wheelchair": "STIF 2019-01", "tactile_paving": "no", "wheelchair": "no"}}, {"type": "node", "id": 701601131, "lat": 48.8594294, "lon": 2.4027648, "tags": {"STIF:zone": "1", "bench": "yes", "bin": "no", "bus": "yes", "highway": "bus_stop", "lit": "no", "name": "Pyr\u00e9n\u00e9es - Bagnolet", "public_transport": "platform", "ref:FR:STIF": "26322", "route_ref": "76", "shelter": "no", "source": "survey 09/2018", "tactile_paving": "no"}}, {"type": "node", "id": 701601133, "lat": 48.8594221, "lon": 2.4024764, "tags": {"STIF:zone": "1", "bench": "yes", "bin": "no", "bus": "yes", "bus_stop:type": "Abri autobus T\u00e9l\u00e9com petit mod\u00e8le", "highway": "bus_stop", "lit": "yes", "name": "Pyr\u00e9n\u00e9es - Bagnolet", "public_transport": "platform", "ref:FR:STIF": "26324", "route_ref": "76", "shelter": "no", "source": "survey 09/2018", "source:position": "BDOrtho IGN 2018", "source:wheelchair": "STIF 2019-01", "tactile_paving": "no", "wheelchair": "yes"}}, {"type": "node", "id": 702750602, "lat": 48.8598337, "lon": 2.3567019, "tags": {"STIF:zone": "1", "bench": "yes", "bin": "no", "bus": "yes", "highway": "bus_stop", "lit": "yes", "name": "Archives - Rambuteau", "public_transport": "platform", "ref:FR:STIF": "24799", "route_ref": "75", "shelter": "yes", "source:wheelchair": "STIF 2019-01", "tactile_paving": "no", "wheelchair": "no"}}, {"type": "node", "id": 702750973, "lat": 48.8587674, "lon": 2.3585491, "tags": {"STIF:zone": "1", "bench": "yes", "bin": "no", "bus": "yes", "bus_stop:type": "Abri autobus 3,35x1,40", "highway": "bus_stop", "lit": "yes", "name": "Rue Vieille du Temple", "name:RATP": "RUE VIEILLE DU TEMPLE", "public_transport": "platform", "ref:FR:RATP": "11343942", "ref:FR:STIF": "29434", "shelter": "yes", "source:position": "opendata.paris.fr - 04/2011", "source:ref:FR:STIF": "opendata STIF - 03/2017", "tactile_paving": "no", "type:RATP": "bus", "wikidata": "Q56868543"}}, {"type": "node", "id": 703518512, "lat": 48.8563513, "lon": 2.3645998, "tags": {"STIF:zone": "1", "bench": "no", "bin": "no", "bus": "yes", "highway": "bus_stop", "lit": "no", "name": "Place des Vosges", "public_transport": "platform", "ref:FR:RATP": "11335784", "ref:FR:STIF": "26182", "shelter": "no", "tactile_paving": "no", "type:RATP": "bus"}}, {"type": "node", "id": 704094476, "lat": 48.8539074, "lon": 2.3652618, "tags": {"STIF:zone": "1", "bench": "yes", "bin": "yes", "bus": "yes", "highway": "bus_stop", "lit": "yes", "name": "Birague", "public_transport": "platform", "ref:FR:STIF": "8431", "shelter": "yes", "source:wheelchair": "STIF 2019-01", "survey:date": "2020-12-03", "tactile_paving": "no", "wheelchair": "yes"}}, {"type": "node", "id": 705182623, "lat": 48.8512399, "lon": 2.3630751, "tags": {"STIF:zone": "1", "bench": "yes", "bin": "no", "bus": "yes", "highway": "bus_stop", "lit": "yes", "name": "Sully - Morland", "public_transport": "platform", "ref:FR:STIF": "36306", "route_ref": "86;87", "shelter": "yes", "source:wheelchair": "STIF 2019-01", "tactile_paving": "no", "wheelchair": "no"}}, {"type": "node", "id": 705182829, "lat": 48.8515209, "lon": 2.36208, "tags": {"STIF:zone": "1", "bench": "yes", "bin": "no", "bus": "yes", "highway": "bus_stop", "lit": "no", "name": "Sully - Morland", "public_transport": "platform", "ref:FR:STIF": "417935", "route_ref": "67;72", "shelter": "yes", "survey:date": "2021-01-09", "tactile_paving": "no", "wheelchair": "no"}}, {"type": "node", "id": 705458721, "lat": 48.8528348, "lon": 2.3677251, "tags": {"STIF:zone": "1", "bench": "yes", "bin": "no", "bus": "yes", "highway": "bus_stop", "lit": "yes", "name": "Bastille - Henri IV", "public_transport": "platform", "ref:FR:STIF": "29790", "route_ref": "86;87", "shelter": "yes", "source": "survey 06/2018", "source:wheelchair": "STIF 2019-01", "survey:date": "2020-12-03", "tactile_paving": "no", "wheelchair": "yes"}}, {"type": "node", "id": 705657776, "lat": 48.8632045, "lon": 2.3514764, "tags": {"STIF:zone": "1", "bench": "yes", "bin": "no", "bus": "yes", "bus_stop:type": "Abri autobus T\u00e9l\u00e9com grand mod\u00e8le", "highway": "bus_stop", "lit": "yes", "name": "S\u00e9bastopol - \u00c9tienne Marcel", "name:RATP": "SEBASTOPOL - ETIENNE MARCEL", "public_transport": "platform", "ref:FR:RATP": "11343938", "ref:FR:STIF": "29435", "route_ref": "29", "shelter": "yes", "source:position": "opendata.paris.fr - 04/2011", "source:ref:FR:STIF": "opendata STIF - 03/2017", "tactile_paving": "no", "type:RATP": "bus", "wheelchair": "yes", "wikidata": "Q56858321"}}, {"type": "node", "id": 706127936, "lat": 48.862838, "lon": 2.3530718, "tags": {"STIF:zone": "1", "bench": "yes", "bin": "yes", "bus": "yes", "bus_stop:type": "Abri autobus 4x1,60", "highway": "bus_stop", "lit": "yes", "name": "Grenier Saint-Lazare - Quartier de l'Horloge", "name:RATP": "GRENIER SAINT-LAZARE - QUARTIER DE L'HORLOGE", "public_transport": "platform", "ref:FR:RATP": "11343939", "ref:FR:STIF": "29449", "shelter": "yes", "source:position": "opendata.paris.fr - 04/2011", "source:ref:FR:STIF": "opendata STIF - 03/2017", "tactile_paving": "no", "type:RATP": "bus"}}, {"type": "node", "id": 706128129, "lat": 48.8629143, "lon": 2.3542841, "tags": {"STIF:zone": "1", "bench": "yes", "bin": "yes", "bus": "yes", "highway": "bus_stop", "lit": "yes", "name": "Grenier Saint-Lazare - Quartier de l'Horloge", "public_transport": "platform", "ref:FR:STIF": "28262", "route_ref": "38;47;75;N12;N13;N14;N23", "shelter": "yes", "source:wheelchair": "STIF 2019-01", "tactile_paving": "no", "wheelchair": "no"}}, {"type": "node", "id": 707316623, "lat": 48.8666422, "lon": 2.3610525, "tags": {"STIF:zone": "1", "bench": "yes", "bin": "yes", "bus": "yes", "highway": "bus_stop", "lit": "yes", "name": "Turbigo - R\u00e9publique", "public_transport": "platform", "ref:FR:STIF": "39464", "route_ref": "75;N12;N23", "shelter": "yes", "source:wheelchair": "STIF 2019-01", "tactile_paving": "no", "wheelchair": "no"}}, {"type": "node", "id": 707999918, "lat": 48.8651952, "lon": 2.356951, "tags": {"STIF:zone": "1", "bench": "yes", "bus": "yes", "bus_stop:type": "Abri autobus 4x1,60", "highway": "bus_stop", "name": "Arts et M\u00e9tiers", "name:RATP": "ARTS ET METIERS", "public_transport": "platform", "ref:FR:RATP": "11342238", "ref:FR:STIF": "39796", "shelter": "yes", "source:position": "opendata.paris.fr - 04/2011", "source:ref:FR:STIF": "opendata STIF - 03/2017", "tactile_paving": "no", "type:RATP": "bus", "wheelchair": "no"}}, {"type": "node", "id": 717532864, "lat": 48.856758, "lon": 2.3644946, "tags": {"STIF:zone": "1", "bench": "yes", "bin": "no", "bus": "yes", "highway": "bus_stop", "lit": "yes", "name": "Place des Vosges", "public_transport": "platform", "ref:FR:STIF": "37580", "route_ref": "96", "shelter": "no", "source:wheelchair": "STIF 2019-01", "tactile_paving": "no", "wheelchair": "no"}}, {"type": "node", "id": 739806722, "lat": 48.8421032, "lon": 2.3593721, "tags": {"STIF:zone": "1", "bench": "yes", "bin": "no", "bus": "yes", "highway": "bus_stop", "lit": "yes", "name": "Buffon - Jardin des Plantes", "public_transport": "platform", "ref:FR:STIF": "22322", "route_ref": "89;24", "shelter": "yes", "source:wheelchair": "STIF 2019-01", "tactile_paving": "no", "wheelchair": "no"}}, {"type": "node", "id": 765933308, "lat": 48.8315437, "lon": 2.3150643, "tags": {"STIF:zone": "1", "bench": "yes", "bin": "no", "bus": "yes", "departures_board": "realtime", "highway": "bus_stop", "lit": "yes", "name": "Plaisance - H\u00f4pital Saint-Joseph", "public_transport": "platform", "ref:FR:STIF": "23603", "shelter": "yes", "source": "survey", "source:position": "BDOrtho IGN 2025", "source:ref:FR:STIF": "STIF - 12/2016", "survey:date": "2025-06-04", "tactile_paving": "no"}}, {"type": "node", "id": 765933863, "lat": 48.8319414, "lon": 2.3138342, "tags": {"STIF:zone": "1", "bench": "yes", "bin": "yes", "bus": "yes", "bus_stop:type": "Abri autobus 4x1,60", "highway": "bus_stop", "lit": "yes", "name": "Plaisance - H\u00f4pital Saint-Joseph", "public_transport": "platform", "ref:FR:STIF": "23619", "route_ref": "62", "shelter": "yes", "source": "survey", "source:position": "opendata.paris.fr - 04/2011", "source:ref:FR:STIF": "STIF - 12/2016", "tactile_paving": "no"}}, {"type": "node", "id": 765938218, "lat": 48.8330154, "lon": 2.3109762, "tags": {"STIF:zone": "1", "bench": "yes", "bin": "no", "bus": "yes", "bus_stop:type": "Abri autobus 4x1,60", "highway": "bus_stop", "lit": "yes", "name": "Vercing\u00e9torix", "public_transport": "platform", "ref:FR:STIF": "23602", "shelter": "yes", "source": "survey", "source:position": "opendata.paris.fr - 04/2011", "source:ref:FR:STIF": "STIF - 12/2016", "tactile_paving": "no"}}, {"type": "node", "id": 765938224, "lat": 48.8325258, "lon": 2.3118987, "tags": {"STIF:zone": "1", "bench": "yes", "bin": "no", "bus": "yes", "bus_stop:type": "Abri autobus 3,35x1,40", "highway": "bus_stop", "lit": "no", "name": "Vercing\u00e9torix", "passenger_information_display": "realtime", "public_transport": "platform", "ref:FR:STIF": "24005", "shelter": "yes", "source": "survey", "source:position": "BDOrtho IGN 2025", "source:ref:FR:STIF": "STIF - 12/2016", "tactile_paving": "no"}}, {"type": "node", "id": 765938533, "lat": 48.8307202, "lon": 2.3195057, "tags": {"STIF:zone": "1", "bench": "no", "bin": "no", "bus": "yes", "highway": "bus_stop", "lit": "no", "name": "Al\u00e9sia - Didot", "public_transport": "platform", "ref:FR:STIF": "28686", "shelter": "no", "source": "survey", "source:ref:FR:STIF": "STIF - 12/2016", "tactile_paving": "no"}}, {"type": "node", "id": 765952057, "lat": 48.838825, "lon": 2.317085, "tags": {"STIF:zone": "1", "bench": "yes", "bin": "no", "bus": "yes", "highway": "bus_stop", "lit": "no", "name": "Montparnasse 2 - Gare TGV", "public_transport": "platform", "ref:FR:STIF": "461397", "route_ref": "91", "shelter": "yes", "source:wheelchair": "STIF 2019-01", "tactile_paving": "no", "wheelchair": "no"}}, {"type": "node", "id": 765952391, "lat": 48.8378754, "lon": 2.3190005, "tags": {"STIF:zone": "1", "bench": "no", "bin": "no", "bus": "yes", "highway": "bus_stop", "lit": "no", "name": "Place de Catalogne", "public_transport": "platform", "ref:FR:STIF": "28432", "shelter": "no", "source:wheelchair": "STIF 2019-01", "survey:date": "2020-10-23", "tactile_paving": "no", "wheelchair": "no"}}, {"type": "node", "id": 765958080, "lat": 48.8323703, "lon": 2.3205855, "tags": {"STIF:zone": "1", "bench": "yes", "bin": "no", "bus": "yes", "bus_stop:type": "Abri autobus T\u00e9l\u00e9com grand mod\u00e8le", "highway": "bus_stop", "lit": "yes", "name": "Pernety", "public_transport": "platform", "ref:FR:STIF": "28681", "route_ref": "58", "shelter": "yes", "source": "survey", "source:position": "opendata.paris.fr - 04/2011", "source:ref:FR:STIF": "STIF - 12/2016", "tactile_paving": "no"}}, {"type": "node", "id": 765958547, "lat": 48.8339772, "lon": 2.3217898, "tags": {"STIF:zone": "1", "bench": "yes", "bin": "yes", "bus": "yes", "bus_stop:type": "Abri autobus 3,35x1,40", "check_date": "2024-03-25", "highway": "bus_stop", "lit": "yes", "name": "Ch\u00e2teau", "public_transport": "platform", "ref:FR:STIF": "28685", "route_ref": "58", "shelter": "yes", "source": "survey", "source:position": "BDOrtho IGN 2017", "source:ref:FR:STIF": "STIF - 12/2016", "tactile_paving": "no"}}, {"type": "node", "id": 765981209, "lat": 48.83648, "lon": 2.3227216, "tags": {"STIF:zone": "1", "bench": "no", "bin": "no", "bus": "yes", "highway": "bus_stop", "lit": "yes", "name": "Losserand - Maine", "passenger_information_display": "yes", "passenger_information_display:speech_output": "no", "public_transport": "platform", "ref:FR:STIF": "26612", "route_ref": "58;59", "shelter": "no", "source:wheelchair": "STIF 2019-01", "tactile_paving": "no", "wheelchair": "no"}}, {"type": "node", "id": 765982202, "lat": 48.8380824, "lon": 2.3228757, "tags": {"STIF:zone": "1", "bench": "yes", "bin": "no", "bus": "yes", "departures_board": "yes", "highway": "bus_stop", "lit": "yes", "name": "Gait\u00e9", "public_transport": "platform", "ref:FR:STIF": "27075", "route_ref": "28;58;92", "shelter": "yes", "source:wheelchair": "STIF 2019-01", "tactile_paving": "no", "wheelchair": "no"}}, {"type": "node", "id": 765983569, "lat": 48.8409432, "lon": 2.3217085, "tags": {"STIF:zone": "1", "bench": "yes", "bin": "yes", "bus": "yes", "highway": "bus_stop", "lit": "no", "name": "Gare Montparnasse", "public_transport": "platform", "ref:FR:STIF": "20099", "shelter": "yes", "source:wheelchair": "STIF 2019-01", "survey:date": "2020-10-23", "tactile_paving": "no", "wheelchair": "no"}}, {"type": "node", "id": 765985729, "lat": 48.8428696, "lon": 2.3239269, "tags": {"STIF:zone": "1", "bench": "no", "bin": "no", "bus": "yes", "highway": "bus_stop", "lit": "yes", "name": "Montparnasse - Rue du D\u00e9part", "public_transport": "platform", "ref:FR:STIF": "28682", "route_ref": "28;58;92", "shelter": "no", "source:wheelchair": "STIF 2019-01", "tactile_paving": "no", "wheelchair": "no"}}, {"type": "node", "id": 765989532, "lat": 48.8435435, "lon": 2.323681, "tags": {"STIF:zone": "1", "bench": "yes", "bin": "yes", "bus": "yes", "highway": "bus_stop", "lit": "yes", "name": "Montparnasse", "public_transport": "platform", "ref:FR:STIF": "37380", "route_ref": "82;91;95;N02;N01", "shelter": "yes", "source:wheelchair": "STIF 2019-01", "tactile_paving": "no", "wheelchair": "no"}},