{"version": 0.6, "generator": "Overpass API 0.7.62.8 e802775f", "osm3s": {"timestamp_osm_base": "2025-12-03T20:31:44Z", "copyright": "The data included in this document is from www.openstreetmap.org. The data is made available under ODbL."}, "elements": [{"type": "node", "id": 7470130, "lat": 45.7590967, "lon": 4.8376296, "tags": {"bus": "yes", "name": "Pont Guilloti\u00e8re - Rive Droite", "network": "TCL", "public_transport": "stop_position"}}, {"type": "node", "id": 8876616, "lat": 45.7514105, "lon": 4.8089897, "tags": {"bus": "yes", "name": "Castors", "public_transport": "stop_position"}}, {"type": "node", "id": 13801789, "lat": 45.7482226, "lon": 4.8255307, "tags": {"level": "0", "local_ref": "D", "name": "Lyon-Perrache", "operator": "SNCF R\u00e9seau", "public_transport": "stop_position", "railway": "stop", "train": "yes", "uic_ref": "8772202", "wheelchair": "yes"}}, {"type": "node", "id": 16050231, "lat": 45.7405673, "lon": 4.8190408, "tags": {"name": "H\u00f4tel de R\u00e9gion Montrochet", "network": "TCL", "network:wikidata": "Q8700", "operator": "Keolis Lyon", "operator:wikidata": "Q61456136", "public_transport": "stop_position", "railway": "tram_stop", "tram": "yes", "wheelchair": "yes"}}, {"type": "node", "id": 16050236, "lat": 45.7493549, "lon": 4.8276271, "tags": {"bus": "yes", "highway": "bus_stop", "name": "Gare Routi\u00e8re de Perrache", "public_transport": "stop_position", "wheelchair": "yes", "wikidata": "Q1992", "wikipedia": "fr:Gare de Lyon-Perrache"}}, {"type": "node", "id": 16050263, "lat": 45.7549452, "lon": 4.8425387, "tags": {"bench": "yes", "name": "Guilloti\u00e8re", "network": "TCL", "network:wikidata": "Q8700", "operator": "Keolis Lyon", "operator:wikidata": "Q61456136", "public_transport": "stop_position", "railway": "tram_stop", "shelter": "yes", "tram": "yes", "wheelchair": "yes"}}, {"type": "node", "id": 16050441, "lat": 45.7436641, "lon": 4.8468802, "tags": {"name": "Garibaldi Berthelot", "network": "TCL", "network:wikidata": "Q8700", "operator": "Keolis Lyon", "operator:wikidata": "Q61456136", "public_transport": "stop_position", "railway": "tram_stop", "tram": "yes", "wheelchair": "yes"}}, {"type": "node", "id": 22155085, "lat": 45.753777, "lon": 4.8191244, "tags": {"bus": "yes", "name": "Choulans - Tourelles", "public_transport": "stop_position"}}, {"type": "node", "id": 24289151, "lat": 45.7507136, "lon": 4.8150267, "tags": {"alt_name": "Premi\u00e8re division fran\u00e7aise libre", "bus": "yes", "name": "1\u00e8re DFL", "public_transport": "stop_position"}}, {"type": "node", "id": 24478359, "lat": 45.7620143, "lon": 4.8311362, "tags": {"amenity": "ferry_terminal", "ferry": "yes", "name": "Terrasses Presqu\u00eele", "network": "TCL", "public_transport": "stop_position", "source": "survey"}}, {"type": "node", "id": 25622575, "lat": 45.7433365, "lon": 4.8293815, "tags": {"bus": "yes", "name": "Leclerc - G\u00e9n\u00e9ral Fr\u00e8re", "public_transport": "stop_position"}}, {"type": "node", "id": 25722242, "lat": 45.7705896, "lon": 4.812113, "tags": {"bus": "yes", "name": "Pont K\u0153nig R. D.", "network": "TCL", "public_transport": "stop_position", "trolleybus": "yes"}}, {"type": "node", "id": 26033319, "lat": 45.7573362, "lon": 4.8527862, "tags": {"bus": "yes", "highway": "bus_stop", "name": "Garibaldi - Paul Bert", "network": "TCL", "network:wikidata": "Q8700", "network:wikipedia": "fr:Transports en commun lyonnais", "operator": "Keolis Lyon", "operator:wikidata": "Q61456136", "public_transport": "stop_position"}}, {"type": "node", "id": 26480379, "lat": 45.7596311, "lon": 4.8375966, "tags": {"bus": "yes", "name": "Pont Guilloti\u00e8re - Rive Droite", "network": "TCL", "public_transport": "stop_position", "wheelchair": "no"}}, {"type": "node", "id": 27179943, "lat": 45.7572204, "lon": 4.8158387, "tags": {"bus": "yes", "name": "Saint-Just", "public_transport": "stop_position"}}, {"type": "node", "id": 29065834, "lat": 45.7553541, "lon": 4.8428428, "tags": {"alt_name": "Guilloti\u00e8re - Gabriel P\u00e9ri", "name": "Guilloti\u00e8re", "network": "TCL", "public_transport": "stop_position", "railway": "stop", "ref": "5044", "station": "subway", "subway": "yes", "wheelchair": "yes", "wikidata": "Q2017224", "wikipedia": "fr:Guilloti\u00e8re - Gabriel P\u00e9ri (m\u00e9tro de Lyon)"}}, {"type": "node", "id": 29065835, "lat": 45.7601928, "lon": 4.8259681, "tags": {"name": "Vieux Lyon - Cath\u00e9drale Saint-Jean", "network": "TCL", "public_transport": "stop_position", "railway": "stop", "ref": "5095", "subway": "yes", "wheelchair": "yes", "wikidata": "Q2418969", "wikipedia": "fr:Vieux Lyon - Cath\u00e9drale Saint-Jean (m\u00e9tro de Lyon)"}}, {"type": "node", "id": 29065839, "lat": 45.7575745, "lon": 4.8331247, "tags": {"level": "-1", "name": "Bellecour", "network": "TCL", "public_transport": "stop_position", "railway": "stop", "ref": "5002", "subway": "yes", "wheelchair": "yes", "wikidata": "Q5298", "wikipedia": "fr:Bellecour (m\u00e9tro de Lyon)"}}, {"type": "node", "id": 29065840, "lat": 45.7516219, "lon": 4.853488, "tags": {"name": "Garibaldi", "network": "TCL", "public_transport": "stop_position", "railway": "stop", "ref": "5181", "subway": "yes", "wheelchair": "yes", "wikidata": "Q2525806", "wikipedia": "fr:Garibaldi (m\u00e9tro de Lyon)"}}, {"type": "node", "id": 29065842, "lat": 45.753283, "lon": 4.8466842, "tags": {"name": "Saxe - Gambetta", "network": "TCL", "public_transport": "stop_position", "railway": "stop", "ref": "5092", "subway": "yes", "wheelchair": "yes", "wikidata": "Q1872405", "wikipedia": "fr:Saxe - Gambetta (m\u00e9tro de Lyon)"}}, {"type": "node", "id": 29075625, "lat": 45.7633083, "lon": 4.8358281, "tags": {"name": "Cordeliers", "network": "TCL", "public_transport": "stop_position", "railway": "stop", "ref": "5021", "subway": "yes", "wheelchair": "yes", "wikidata": "Q776088", "wikipedia": "fr:Cordeliers (m\u00e9tro de Lyon)"}}, {"type": "node", "id": 29075627, "lat": 45.7672702, "lon": 4.8360565, "tags": {"name": "H\u00f4tel de Ville - Louis Pradel", "network": "TCL", "public_transport": "stop_position", "railway": "stop", "ref": "5046", "subway": "yes", "wheelchair": "yes", "wikidata": "Q613893", "wikipedia": "fr:H\u00f4tel de Ville - Louis Pradel (m\u00e9tro de Lyon)"}}, {"type": "node", "id": 29163412, "lat": 45.7460317, "lon": 4.842387, "tags": {"name": "Jean Mac\u00e9", "network": "TCL", "public_transport": "stop_position", "railway": "stop", "subway": "yes", "wheelchair": "yes", "wikidata": "Q2059990", "wikipedia": "fr:Jean Mac\u00e9 (m\u00e9tro de Lyon)"}}, {"type": "node", "id": 29867720, "lat": 45.7710097, "lon": 4.8361796, "tags": {"name": "Croix-Paquet", "network": "TCL", "public_transport": "stop_position", "railway": "stop", "ref": "5222", "subway": "yes", "wheelchair": "no", "wikidata": "Q1960275"}}, {"type": "node", "id": 29867721, "lat": 45.7745025, "lon": 4.8318708, "tags": {"name": "Croix-Rousse", "network": "TCL", "public_transport": "stop_position", "railway": "stop", "ref": "5223", "subway": "yes", "wheelchair": "yes", "wikidata": "Q2785196", "wikipedia": "fr:Croix-Rousse (m\u00e9tro de Lyon)"}}, {"type": "node", "id": 33062372, "lat": 45.7606742, "lon": 4.8538132, "tags": {"name": "Part-Dieu - Auditorium", "network": "TCL", "network:wikidata": "Q8700", "operator": "Keolis Lyon", "operator:wikidata": "Q61456136", "public_transport": "stop_position", "railway": "tram_stop", "tram": "yes", "wheelchair": "yes"}}, {"type": "node", "id": 33062706, "lat": 45.7603239, "lon": 4.8483963, "tags": {"name": "Palais de Justice - Mairie du 3e", "network": "TCL", "network:wikidata": "Q8700", "operator": "Keolis Lyon", "operator:wikidata": "Q61456136", "public_transport": "stop_position", "railway": "tram_stop", "tram": "yes", "wheelchair": "yes"}}, {"type": "node", "id": 33062707, "lat": 45.7601118, "lon": 4.8452808, "tags": {"name": "Saxe-Pr\u00e9fecture", "network": "TCL", "network:wikidata": "Q8700", "operator": "Keolis Lyon", "operator:wikidata": "Q61456136", "public_transport": "stop_position", "railway": "tram_stop", "tram": "yes", "wheelchair": "yes"}}, {"type": "node", "id": 33062708, "lat": 45.758858, "lon": 4.8424556, "tags": {"bench": "yes", "name": "Libert\u00e9", "network": "TCL", "network:wikidata": "Q8700", "operator": "Keolis Lyon", "operator:wikidata": "Q61456136", "public_transport": "stop_position", "railway": "tram_stop", "shelter": "yes", "tram": "yes", "wheelchair": "yes"}}, {"type": "node", "id": 33064206, "lat": 45.7528829, "lon": 4.8410584, "tags": {"name": "Saint-Andr\u00e9", "network": "TCL", "network:wikidata": "Q8700", "operator": "Keolis Lyon", "operator:wikidata": "Q61456136", "public_transport": "stop_position", "railway": "tram_stop", "tram": "yes", "wheelchair": "yes"}}, {"type": "node", "id": 33064207, "lat": 45.7496772, "lon": 4.8353169, "tags": {"name": "Quai Claude Bernard", "network": "TCL", "network:wikidata": "Q8700", "operator": "Keolis Lyon", "operator:wikidata": "Q61456136", "public_transport": "stop_position", "railway": "tram_stop", "tram": "yes", "wheelchair": "yes"}}, {"type": "node", "id": 33064208, "lat": 45.7470663, "lon": 4.8245818, "tags": {"name": "Place des Archives", "network": "TCL", "network:wikidata": "Q8700", "operator": "Keolis Lyon", "operator:wikidata": "Q61456136", "public_transport": "stop_position", "railway": "tram_stop", "tram": "yes", "wheelchair": "yes"}}, {"type": "node", "id": 33065114, "lat": 45.7421032, "lon": 4.8517674, "tags": {"name": "Route de Vienne", "network": "TCL", "network:wikidata": "Q8700", "operator": "Keolis Lyon", "operator:wikidata": "Q61456136", "public_transport": "stop_position", "railway": "tram_stop", "tram": "yes", "wheelchair": "yes"}}, {"type": "node", "id": 33125279, "lat": 45.7571997, "lon": 4.8164781, "tags": {"funicular": "yes", "name": "Saint-Just", "network": "TCL", "public_transport": "stop_position", "railway": "stop", "wheelchair": "yes", "wikidata": "Q3497352", "wikipedia": "fr:Saint-Just (funiculaire de Lyon)"}}, {"type": "node", "id": 33125280, "lat": 45.7623841, "lon": 4.8214827, "tags": {"funicular": "yes", "name": "Fourvi\u00e8re", "network": "TCL", "public_transport": "stop_position", "railway": "stop", "wheelchair": "yes"}}, {"type": "node", "id": 33254325, "lat": 45.7514243, "lon": 4.8237379, "tags": {"bus": "yes", "name": "Pont Kitchener - Rive Gauche", "public_transport": "stop_position"}}, {"type": "node", "id": 33255463, "lat": 45.7503371, "lon": 4.8238914, "tags": {"bus": "yes", "name": "Pont Kitchener - Rive Gauche", "public_transport": "stop_position"}}, {"type": "node", "id": 35222929, "lat": 45.7710117, "lon": 4.8290831, "tags": {"bus": "yes", "name": "Jardin des Plantes", "network": "TCL", "public_transport": "stop_position", "trolleybus": "yes"}}, {"type": "node", "id": 47996326, "lat": 45.74703, "lon": 4.8363374, "tags": {"name": "Centre Berthelot - Sciences Po Lyon", "network": "TCL", "network:wikidata": "Q8700", "operator": "Keolis Lyon", "operator:wikidata": "Q61456136", "public_transport": "stop_position", "railway": "tram_stop", "tram": "yes", "wheelchair": "yes"}}, {"type": "node", "id": 47997320, "lat": 45.7451296, "lon": 4.8422859, "tags": {"name": "Jean Mac\u00e9", "network": "TCL", "network:wikidata": "Q8700", "operator": "Keolis Lyon", "operator:wikidata": "Q61456136", "public_transport": "stop_position", "railway": "tram_stop", "tram": "yes", "wheelchair": "yes"}}, {"type": "node", "id": 82657253, "lat": 45.7645406, "lon": 4.8065561, "tags": {"bus": "yes", "name": "Professeur Gu\u00e9rin", "public_transport": "stop_position"}}, {"type": "node", "id": 213409354, "lat": 45.7530404, "lon": 4.8291954, "tags": {"name": "Amp\u00e8re - Victor Hugo", "network": "TCL", "public_transport": "stop_position", "railway": "stop", "ref": "5000", "subway": "yes", "wheelchair": "yes", "wikidata": "Q2186663", "wikipedia": "fr:Amp\u00e8re - Victor Hugo (m\u00e9tro de Lyon)"}}, {"type": "node", "id": 244430501, "lat": 45.7695736, "lon": 4.8534248, "tags": {"name": "Mass\u00e9na", "network": "TCL", "public_transport": "stop_position", "railway": "stop", "ref:FR:TCL": "42741", "subway": "yes", "wheelchair": "yes", "wikidata": "Q3497340", "wikipedia": "fr:Mass\u00e9na (m\u00e9tro de Lyon)"}}, {"type": "node", "id": 244430502, "lat": 45.768737, "lon": 4.8443953, "tags": {"name": "Foch", "network": "TCL", "public_transport": "stop_position", "railway": "stop", "ref": "5182", "subway": "yes", "wheelchair": "yes", "wikidata": "Q3497333", "wikipedia": "fr:Foch (m\u00e9tro de Lyon)"}}, {"type": "node", "id": 262868465, "lat": 45.7591873, "lon": 4.8473882, "tags": {"name": "Place Guichard - Bourse du Travail", "network": "TCL", "public_transport": "stop_position", "railway": "stop", "subway": "yes", "wheelchair": "yes", "wikidata": "Q599865", "wikipedia": "fr:Place Guichard - Bourse du Travail (m\u00e9tro de Lyon)"}}, {"type": "node", "id": 262868467, "lat": 45.7616054, "lon": 4.8574444, "tags": {"level": "-2", "name": "Gare Part-Dieu - Vivier Merle", "network": "TCL", "public_transport": "stop_position", "railway": "stop", "subway": "yes", "wheelchair": "yes", "wikidata": "Q1897991", "wikipedia": "fr:Gare Part-Dieu - Vivier Merle (m\u00e9tro de Lyon)"}}, {"type": "node", "id": 492150265, "lat": 45.7555756, "lon": 4.8090976, "tags": {"bus": "yes", "name": "Saint-Ir\u00e9n\u00e9e - Croix Blanche", "network": "TCL", "public_transport": "stop_position"}}, {"type": "node", "id": 492169104, "lat": 45.7575796, "lon": 4.8154994, "tags": {"bus": "yes", "name": "Saint-Just", "public_transport": "stop_position"}}, {"type": "node", "id": 492447965, "lat": 45.7577972, "lon": 4.8151528, "tags": {"bus": "yes", "name": "Saint-Just", "public_transport": "stop_position", "source": "cadastre-dgi-fr source : Direction G\u00e9n\u00e9rale des Imp\u00f4ts - Cadastre. Mise \u00e0 jour : 2009"}}, {"type": "node", "id": 573287039, "lat": 45.7450209, "lon": 4.8418685, "tags": {"local_ref": "A", "name": "Lyon Jean Mac\u00e9", "operator": "SNCF Gares & Connexions", "operator:wikidata": "Q3098278", "public_transport": "stop_position", "railway": "stop", "train": "yes", "wheelchair": "yes"}}, {"type": "node", "id": 600734234, "lat": 45.7431093, "lon": 4.8471573, "tags": {"bus": "yes", "name": "Garibaldi - Berthelot", "network": "TCL", "operator": "Sytral", "public_transport": "stop_position"}}, {"type": "node", "id": 639549443, "lat": 45.7469572, "lon": 4.8429112, "tags": {"bus": "yes", "name": "Jean Mac\u00e9", "network": "TCL", "public_transport": "stop_position"}}, {"type": "node", "id": 653281432, "lat": 45.7473865, "lon": 4.8332779, "tags": {"bench": "yes", "bus": "yes", "name": "Pont Galli\u00e9ni RG", "public_transport": "stop_position", "shelter": "yes"}}, {"type": "node", "id": 653284230, "lat": 45.7444981, "lon": 4.8314466, "tags": {"bench": "no", "bus": "yes", "name": "Leclerc - Nadaud", "public_transport": "stop_position", "shelter": "no"}}, {"type": "node", "id": 653284817, "lat": 45.7469233, "lon": 4.8330845, "tags": {"bench": "yes", "bus": "yes", "name": "Pont Galli\u00e9ni RG", "public_transport": "stop_position", "shelter": "yes", "wheelchair": "yes"}}, {"type": "node", "id": 653293256, "lat": 45.743526, "lon": 4.8338959, "tags": {"bench": "yes", "bus": "yes", "name": "Nadaud - Vitriolerie", "public_transport": "stop_position", "shelter": "yes"}}, {"type": "node", "id": 654097822, "lat": 45.7400752, "lon": 4.8267431, "tags": {"bus": "yes", "name": "Leclerc - Girondins", "public_transport": "stop_position"}}, {"type": "node", "id": 654099006, "lat": 45.7437912, "lon": 4.8299213, "tags": {"bus": "yes", "name": "Leclerc - G\u00e9n\u00e9ral Fr\u00e8re", "public_transport": "stop_position"}}, {"type": "node", "id": 655166345, "lat": 45.7582355, "lon": 4.830554, "tags": {"bus": "yes", "name": "Bellecour - Saint-Exup\u00e9ry", "network": "TCL", "public_transport": "stop_position"}}, {"type": "node", "id": 761253593, "lat": 45.7657355, "lon": 4.8445029, "tags": {"bus": "yes", "name": "Edgar Quinet", "network": "TCL", "public_transport": "stop_position", "trolleybus": "yes"}}, {"type": "node", "id": 917183790, "lat": 45.7417665, "lon": 4.8245574, "tags": {"bus": "yes", "name": "Casimir P\u00e9rier", "public_transport": "stop_position"}}, {"type": "node", "id": 917192332, "lat": 45.7430121, "lon": 4.8256201, "tags": {"bus": "yes", "name": "Ravat", "public_transport": "stop_position"}}, {"type": "node", "id": 917207255, "lat": 45.7506467, "lon": 4.819553, "tags": {"bus": "yes", "highway": "bus_stop", "name": "Les \u00c9troits", "network": "TCL", "network:wikidata": "Q8700", "network:wikipedia": "fr:Transports en commun lyonnais", "operator": "Keolis Lyon", "operator:wikidata": "Q61456136", "public_transport": "stop_position"}}, {"type": "node", "id": 918140457, "lat": 45.7504365, "lon": 4.8319434, "tags": {"bus": "yes", "name": "Pont Gallieni RD", "public_transport": "stop_position"}}, {"type": "node", "id": 918142194, "lat": 45.7535793, "lon": 4.8339514, "tags": {"bus": "yes", "name": "Pont de l'Universit\u00e9", "public_transport": "stop_position"}}, {"type": "node", "id": 918142521, "lat": 45.754158, "lon": 4.8337279, "tags": {"bus": "yes", "name": "Pont de l'Universit\u00e9", "public_transport": "stop_position"}}, {"type": "node", "id": 918194243, "lat": 45.7508179, "lon": 4.8320629, "tags": {"bus": "yes", "name": "Pont Gallieni RD", "public_transport": "stop_position"}}, {"type": "node", "id": 918297323, "lat": 45.755563, "lon": 4.8329747, "tags": {"bus": "yes", "name": "Bellecour Charit\u00e9", "public_transport": "stop_position"}}, {"type": "node", "id": 918297325, "lat": 45.7559099, "lon": 4.8331521, "tags": {"bus": "yes", "name": "Bellecour Charit\u00e9", "public_transport": "stop_position"}}, {"type": "node", "id": 967133138, "lat": 45.7488273, "lon": 4.8539182, "tags": {"bus": "yes", "highway": "bus_stop", "name": "Place Stalingrad", "network": "TCL", "network:wikidata": "Q8700", "network:wikipedia": "fr:Transports en commun lyonnais", "operator": "Keolis Lyon", "operator:wikidata": "Q61456136", "public_transport": "stop_position"}}, {"type": "node", "id": 1026390016, "lat": 45.7697517, "lon": 4.8125357, "tags": {"bus": "yes", "name": "Pont K\u0153nig R. D.", "public_transport": "stop_position"}}, {"type": "node", "id": 1032776496, "lat": 45.7671763, "lon": 4.8343692, "tags": {"bus": "yes", "name": "H\u00f4tel de Ville - Louis Pradel", "public_transport": "stop_position"}}, {"type": "node", "id": 1036025141, "lat": 45.7569605, "lon": 4.8406997, "tags": {"bus": "yes", "name": "Fosse aux Ours", "network": "TCL", "public_transport": "stop_position", "wheelchair": "yes"}}, {"type": "node", "id": 1207229744, "lat": 45.7702605, "lon": 4.8092742, "tags": {"bench": "no", "bus": "yes", "highway": "bus_stop", "name": "Les Carriers", "network": "TCL", "network:wikidata": "Q8700", "operator": "Keolis Lyon", "operator:wikidata": "Q61456136", "public_transport": "stop_position", "shelter": "no"}}, {"type": "node", "id": 1340044649, "lat": 45.7522117, "lon": 4.8087085, "tags": {"bus": "yes", "name": "Castors", "public_transport": "stop_position"}}, {"type": "node", "id": 1367546457, "lat": 45.7599213, "lon": 4.8259888}, {"type": "node", "id": 1367546458, "lat": 45.7599213, "lon": 4.8259674}, {"type": "node", "id": 1367546460, "lat": 45.7599213, "lon": 4.8259349}, {"type": "node", "id": 1374423198, "lat": 45.7555625, "lon": 4.8093735, "tags": {"bus": "yes", "name": "Saint-Ir\u00e9n\u00e9e - Croix Blanche", "network": "TCL", "public_transport": "stop_position"}}, {"type": "node", "id": 1378528939, "lat": 45.7420292, "lon": 4.8331604, "tags": {"bench": "yes", "bus": "yes", "name": "Pr\u00e9 Gaudry - Yves Farge", "public_transport": "stop_position", "shelter": "yes"}}, {"type": "node", "id": 1384044983, "lat": 45.7500811, "lon": 4.8259872, "tags": {"bus": "yes", "mapillary": "503970544076953", "name": "Gare Routi\u00e8re de Perrache", "pole": "no", "public_transport": "stop_position", "shelter": "no", "survey:date": "2019-06-19", "wheelchair": "yes", "wikidata": "Q1992", "wikipedia": "fr:Gare de Lyon-Perrache"}}, {"type": "node", "id": 1384045004, "lat": 45.7512015, "lon": 4.8242236, "tags": {"bus": "yes", "name": "Pont Kitchener - Rive Gauche", "public_transport": "stop_position"}}, {"type": "node", "id": 1384090127, "lat": 45.7484008, "lon": 4.820283, "tags": {"bus": "yes", "name": "Claudius Collonge", "public_transport": "stop_position"}}, {"type": "node", "id": 1384090139, "lat": 45.7465017, "lon": 4.8248319, "tags": {"bus": "yes", "name": "Place des Archives", "public_transport": "stop_position"}}, {"type": "node", "id": 1384090142, "lat": 45.746836, "lon": 4.8240065, "tags": {"bus": "yes", "name": "Place des Archives", "public_transport": "stop_position"}}, {"type": "node", "id": 1391446838, "lat": 45.766156, "lon": 4.826413, "tags": {"local_ref": "B", "name": "Lyon-Saint-Paul", "operator": "SNCF Gares & Connexions", "operator:wikidata": "Q3098278", "public_transport": "stop_position", "railway": "stop", "train": "yes"}}, {"type": "node", "id": 1391446847, "lat": 45.7662224, "lon": 4.8264737, "tags": {"local_ref": "C", "name": "Lyon-Saint-Paul", "operator": "SNCF Gares & Connexions", "operator:wikidata": "Q3098278", "public_transport": "stop_position", "railway": "stop", "train": "yes"}}, {"type": "node", "id": 1391446856, "lat": 45.7662446, "lon": 4.8265023, "tags": {"local_ref": "D", "name": "Lyon-Saint-Paul", "operator": "SNCF Gares & Connexions", "operator:wikidata": "Q3098278", "public_transport": "stop_position", "railway": "stop", "train": "yes"}}, {"type": "node", "id": 1391446858, "lat": 45.7662921, "lon": 4.8265741, "tags": {"local_ref": "E", "name": "Lyon-Saint-Paul", "operator": "SNCF Gares & Connexions", "operator:wikidata": "Q3098278", "public_transport": "stop_position", "railway": "stop", "train": "yes"}}, {"type": "node", "id": 1558009302, "lat": 45.7710779, "lon": 4.82905, "tags": {"bus": "yes", "name": "Jardin des Plantes", "network": "TCL", "public_transport": "stop_position", "trolleybus": "yes"}}, {"type": "node", "id": 1702536447, "lat": 45.7532018, "lon": 4.8189689, "tags": {"bus": "yes", "name": "Choulans - Tourelles", "public_transport": "stop_position"}}, {"type": "node", "id": 1723170990, "lat": 45.7531523, "lon": 4.8295253}, {"type": "node", "id": 1723170992, "lat": 45.7531718, "lon": 4.8295358}, {"type": "node", "id": 1754641716, "lat": 45.7480826, "lon": 4.8231732, "tags": {"level": "0", "local_ref": "K", "name": "Lyon Perrache", "operator": "SNCF R\u00e9seau", "public_transport": "stop_position", "railway": "stop", "railway:position:exact": "558.750", "train": "yes", "wheelchair": "yes"}}, {"type": "node", "id": 1754641718, "lat": 45.7480822, "lon": 4.8232213, "tags": {"level": "0", "local_ref": "J", "name": "Lyon Perrache", "operator": "SNCF R\u00e9seau", "public_transport": "stop_position", "railway": "stop", "railway:position:exact": "558.750", "train": "yes", "wheelchair": "yes"}}, {"type": "node", "id": 1764056432, "lat": 45.7498406, "lon": 4.8269649}, {"type": "node", "id": 1777530525, "lat": 45.766114, "lon": 4.8273769, "tags": {"bus": "yes", "name": "Gare Saint-Paul", "network": "TCL", "network:wikidata": "Q8700", "network:wikipedia": "fr:Transports en commun lyonnais", "operator": "Keolis Lyon", "operator:wikidata": "Q61456136", "public_transport": "stop_position", "trolleybus": "yes"}}, {"type": "node", "id": 1927673624, "lat": 45.7619665, "lon": 4.8501674, "tags": {"bus": "yes", "name": "Moncey - Bonnel", "network": "TCL", "public_transport": "stop_position"}}, {"type": "node", "id": 1977648751, "lat": 45.7470571, "lon": 4.8363525, "tags": {"name": "Centre Berthelot - Sciences Po Lyon", "network": "TCL", "network:wikidata": "Q8700", "operator": "Keolis Lyon", "operator:wikidata": "Q61456136", "public_transport": "stop_position", "railway": "tram_stop", "source": "cadastre-dgi-fr source : Direction G\u00e9n\u00e9rale des Imp\u00f4ts - Cadastre. Mise \u00e0 jour : 2012", "tram": "yes", "wheelchair": "yes"}}, {"type": "node", "id": 1977648752, "lat": 45.7436882, "lon": 4.8468949, "tags": {"name": "Garibaldi Berthelot", "network": "TCL", "network:wikidata": "Q8700", "operator": "Keolis Lyon", "operator:wikidata": "Q61456136", "public_transport": "stop_position", "railway": "tram_stop", "source": "cadastre-dgi-fr source : Direction G\u00e9n\u00e9rale des Imp\u00f4ts - Cadastre. Mise \u00e0 jour : 2012", "tram": "yes", "wheelchair": "yes"}}, {"type": "node", "id": 1977648753, "lat": 45.7451542, "lon": 4.8422975, "tags": {"name": "Jean Mac\u00e9", "network": "TCL", "network:wikidata": "Q8700", "operator": "Keolis Lyon", "operator:wikidata": "Q61456136", "public_transport": "stop_position", "railway": "tram_stop", "source": "cadastre-dgi-fr source : Direction G\u00e9n\u00e9rale des Imp\u00f4ts - Cadastre. Mise \u00e0 jour : 2012", "tram": "yes", "wheelchair": "yes"}}, {"type": "node", "id": 1977648754, "lat": 45.742127, "lon": 4.8517781, "tags": {"name": "Route de Vienne", "network": "TCL", "network:wikidata": "Q8700", "operator": "Keolis Lyon", "operator:wikidata": "Q61456136", "public_transport": "stop_position", "railway": "tram_stop", "source": "cadastre-dgi-fr source : Direction G\u00e9n\u00e9rale des Imp\u00f4ts - Cadastre. Mise \u00e0 jour : 2012", "tram": "yes", "wheelchair": "yes"}}, {"type": "node", "id": 1977851418, "lat": 45.7496116, "lon": 4.8268063, "tags": {"name": "Perrache", "network": "TCL", "public_transport": "stop_position", "railway": "stop", "ref": "5085", "source": "cadastre-dgi-fr source : Direction G\u00e9n\u00e9rale des Imp\u00f4ts - Cadastre. Mise \u00e0 jour : 2012", "subway": "yes", "wheelchair": "yes", "wikidata": "Q2049305", "wikipedia": "fr:Centre d'\u00e9changes de Perrache"}}, {"type": "node", "id": 1977891492, "lat": 45.7549145, "lon": 4.8424764, "tags": {"bench": "yes", "name": "Guilloti\u00e8re", "network": "TCL", "network:wikidata": "Q8700", "operator": "Keolis Lyon", "operator:wikidata": "Q61456136", "public_transport": "stop_position", "railway": "tram_stop", "shelter": "yes", "source": "cadastre-dgi-fr source : Direction G\u00e9n\u00e9rale des Imp\u00f4ts - Cadastre. Mise \u00e0 jour : 2012", "tram": "yes", "wheelchair": "yes"}}, {"type": "node", "id": 1977891493, "lat": 45.7588575, "lon": 4.8424196, "tags": {"bench": "yes", "name": "Libert\u00e9", "network": "TCL", "network:wikidata": "Q8700", "operator": "Keolis Lyon", "operator:wikidata": "Q61456136", "public_transport": "stop_position", "railway": "tram_stop", "shelter": "yes", "source": "cadastre-dgi-fr source : Direction G\u00e9n\u00e9rale des Imp\u00f4ts - Cadastre. Mise \u00e0 jour : 2012", "tram": "yes", "wheelchair": "yes"}}, {"type": "node", "id": 1977891494, "lat": 45.7603515, "lon": 4.8483927, "tags": {"name": "Palais de Justice - Mairie du 3e", "network": "TCL", "network:wikidata": "Q8700", "operator": "Keolis Lyon", "operator:wikidata": "Q61456136", "public_transport": "stop_position", "railway": "tram_stop", "source": "cadastre-dgi-fr source : Direction G\u00e9n\u00e9rale des Imp\u00f4ts - Cadastre. Mise \u00e0 jour : 2012", "tram": "yes", "wheelchair": "yes"}}, {"type": "node", "id": 1977891495, "lat": 45.7607292, "lon": 4.8538018, "tags": {"name": "Part-Dieu - Auditorium", "network": "TCL", "network:wikidata": "Q8700", "operator": "Keolis Lyon", "operator:wikidata": "Q61456136", "public_transport": "stop_position", "railway": "tram_stop", "source": "cadastre-dgi-fr source : Direction G\u00e9n\u00e9rale des Imp\u00f4ts - Cadastre. Mise \u00e0 jour : 2012", "tram": "yes", "wheelchair": "yes"}}, {"type": "node", "id": 1977891496, "lat": 45.7495762, "lon": 4.8351996, "tags": {"name": "Quai Claude Bernard", "network": "TCL", "network:wikidata": "Q8700", "operator": "Keolis Lyon", "operator:wikidata": "Q61456136", "public_transport": "stop_position", "railway": "tram_stop", "source": "cadastre-dgi-fr source : Direction G\u00e9n\u00e9rale des Imp\u00f4ts - Cadastre. Mise \u00e0 jour : 2012", "tram": "yes", "wheelchair": "yes"}}, {"type": "node", "id": 1977891498, "lat": 45.7528923, "lon": 4.8410239, "tags": {"name": "Saint-Andr\u00e9", "network": "TCL", "network:wikidata": "Q8700", "operator": "Keolis Lyon", "operator:wikidata": "Q61456136", "public_transport": "stop_position", "railway": "tram_stop", "source": "cadastre-dgi-fr source : Direction G\u00e9n\u00e9rale des Imp\u00f4ts - Cadastre. Mise \u00e0 jour : 2012", "tram": "yes", "wheelchair": "yes"}}, {"type": "node", "id": 1977891499, "lat": 45.7601369, "lon": 4.8452789, "tags": {"name": "Saxe-Pr\u00e9fecture", "network": "TCL", "network:wikidata": "Q8700", "operator": "Keolis Lyon", "operator:wikidata": "Q61456136", "public_transport": "stop_position", "railway": "tram_stop", "source": "cadastre-dgi-fr source : Direction G\u00e9n\u00e9rale des Imp\u00f4ts - Cadastre. Mise \u00e0 jour : 2012", "tram": "yes", "wheelchair": "yes"}}, {"type": "node", "id": 1977987854, "lat": 45.7405804, "lon": 4.8190096, "tags": {"name": "H\u00f4tel de R\u00e9gion Montrochet", "network": "TCL", "network:wikidata": "Q8700", "operator": "Keolis Lyon", "operator:wikidata": "Q61456136", "public_transport": "stop_position", "railway": "tram_stop", "source": "cadastre-dgi-fr source : Direction G\u00e9n\u00e9rale des Imp\u00f4ts - Cadastre. Mise \u00e0 jour : 2012", "tram": "yes", "wheelchair": "yes"}}, {"type": "node", "id": 1977987872, "lat": 45.7442227, "lon": 4.8221158, "tags": {"name": "Sainte-Blandine", "network": "TCL", "network:wikidata": "Q8700", "operator": "Keolis Lyon", "operator:wikidata": "Q61456136", "public_transport": "stop_position", "railway": "tram_stop", "source": "cadastre-dgi-fr source : Direction G\u00e9n\u00e9rale des Imp\u00f4ts - Cadastre. Mise \u00e0 jour : 2012", "tram": "yes", "wheelchair": "yes"}}, {"type": "node", "id": 1977987877, "lat": 45.7470764, "lon": 4.8245458, "tags": {"name": "Place des Archives", "network": "TCL", "network:wikidata": "Q8700", "operator": "Keolis Lyon", "operator:wikidata": "Q61456136", "public_transport": "stop_position", "railway": "tram_stop", "source": "cadastre-dgi-fr source : Direction G\u00e9n\u00e9rale des Imp\u00f4ts - Cadastre. Mise \u00e0 jour : 2012", "tram": "yes", "wheelchair": "yes"}}, {"type": "node", "id": 1978195276, "lat": 45.7586372, "lon": 4.8213787, "tags": {"covered": "no", "funicular": "yes", "name": "Minimes - Th\u00e9\u00e2tres romains", "network": "TCL", "public_transport": "stop_position", "railway": "stop", "wheelchair": "yes", "wikidata": "Q3497346", "wikipedia": "fr:Minimes - Th\u00e9\u00e2tres Romains (funiculaire de Lyon)"}}, {"type": "node", "id": 1978195278, "lat": 45.7586597, "lon": 4.8213695, "tags": {"covered": "no", "funicular": "yes", "name": "Minimes - Th\u00e9\u00e2tres romains", "network": "TCL", "public_transport": "stop_position", "railway": "stop", "wheelchair": "yes", "wikidata": "Q3497346", "wikipedia": "fr:Minimes - Th\u00e9\u00e2tres Romains (funiculaire de Lyon)"}}, {"type": "node", "id": 2107157567, "lat": 45.7666416, "lon": 4.820157, "tags": {"bus": "yes", "name": "Homme de la Roche RD", "network": "TCL", "public_transport": "stop_position", "trolleybus": "yes"}}, {"type": "node", "id": 2111802573, "lat": 45.7470952, "lon": 4.8437198, "tags": {"bus": "yes", "name": "Jean Mac\u00e9 - Chevreul", "network": "TCL", "public_transport": "stop_position"}}, {"type": "node", "id": 2161688860, "lat": 45.7550506, "lon": 4.8530553, "tags": {"bus": "yes", "highway": "bus_stop", "name": "Rancy", "network": "TCL", "network:wikidata": "Q8700", "network:wikipedia": "fr:Transports en commun lyonnais", "operator": "Keolis Lyon", "operator:wikidata": "Q61456136", "public_transport": "stop_position"}}, {"type": "node", "id": 2161688861, "lat": 45.7551449, "lon": 4.8531513, "tags": {"bus": "yes", "highway": "bus_stop", "name": "Rancy", "network": "TCL", "network:wikidata": "Q8700", "network:wikipedia": "fr:Transports en commun lyonnais", "operator": "Keolis Lyon", "operator:wikidata": "Q61456136", "public_transport": "stop_position"}}, {"type": "node", "id": 2161715134, "lat": 45.7512275, "lon": 4.8537104, "tags": {"bus": "yes", "highway": "bus_stop", "name": "Garibaldi - Gambetta", "network": "TCL", "network:wikidata": "Q8700", "network:wikipedia": "fr:Transports en commun lyonnais", "operator": "Keolis Lyon", "operator:wikidata": "Q61456136", "public_transport": "stop_position"}}, {"type": "node", "id": 2161724385, "lat": 45.7477228, "lon": 4.8506052, "tags": {"bus": "yes", "highway": "bus_stop", "name": "Domer - Garibaldi", "network": "TCL", "network:wikidata": "Q8700", "network:wikipedia": "fr:Transports en commun lyonnais", "operator": "Keolis Lyon", "operator:wikidata": "Q61456136", "public_transport": "stop_position"}}, {"type": "node", "id": 2161724386, "lat": 45.7476189, "lon": 4.8516952, "tags": {"bus": "yes", "highway": "bus_stop", "name": "Domer - Garibaldi", "network": "TCL", "network:wikidata": "Q8700", "network:wikipedia": "fr:Transports en commun lyonnais", "operator": "Keolis Lyon", "operator:wikidata": "Q61456136", "public_transport": "stop_position"}}, {"type": "node", "id": 2161903849, "lat": 45.7460007, "lon": 4.8423548, "tags": {"bus": "yes", "name": "Jean Mac\u00e9", "network": "TCL", "public_transport": "stop_position", "trolleybus": "yes"}}, {"type": "node", "id": 2161903850, "lat": 45.746126, "lon": 4.8424306, "tags": {"bus": "yes", "name": "Jean Mac\u00e9", "network": "TCL", "public_transport": "stop_position", "trolleybus": "yes"}}, {"type": "node", "id": 2161917678, "lat": 45.7426582, "lon": 4.8403604, "tags": {"bus": "yes", "highway": "bus_stop", "lit": "no", "name": "Lortet", "network": "TCL", "network:wikidata": "Q8700", "network:wikipedia": "fr:Transports en commun lyonnais", "operator": "Keolis Lyon", "operator:wikidata": "Q61456136", "public_transport": "stop_position", "tactile_paving": "no"}}, {"type": "node", "id": 2168305273, "lat": 45.762217, "lon": 4.8576059, "tags": {"bus": "yes", "name": "Gare Part-Dieu - Vivier Merle", "network": "TCL", "network:wikidata": "Q8700", "network:wikipedia": "fr:Transports en commun lyonnais", "operator": "Keolis Lyon", "operator:wikidata": "Q61456136", "public_transport": "stop_position", "trolleybus": "yes"}}, {"type": "node", "id": 2174055629, "lat": 45.7619139, "lon": 4.8576629, "tags": {"bus": "yes", "highway": "bus_stop", "name": "Gare Part-Dieu - Vivier Merle", "network": "TCL", "network:wikidata": "Q8700", "network:wikipedia": "fr:Transports en commun lyonnais", "operator": "Keolis Lyon", "operator:wikidata": "Q61456136", "public_transport": "stop_position", "trolleybus": "yes"}}, {"type": "node", "id": 2180782823, "lat": 45.7585072, "lon": 4.8211623, "tags": {"bus": "yes", "name": "Minimes Th\u00e9\u00e2tres Romains", "public_transport": "stop_position"}}, {"type": "node", "id": 2321205036, "lat": 45.7671547, "lon": 4.8149301, "tags": {"bus": "yes", "name": "Greillon", "network": "TCL", "public_transport": "stop_position", "trolleybus": "yes"}}, {"type": "node", "id": 2321205038, "lat": 45.7678653, "lon": 4.8206223, "tags": {"bus": "yes", "name": "Homme de la Roche RG", "network": "TCL", "public_transport": "stop_position", "trolleybus": "yes"}}, {"type": "node", "id": 2321205046, "lat": 45.7673439, "lon": 4.8233146, "tags": {"bus": "yes", "name": "Pierre Scize", "network": "TCL", "public_transport": "stop_position", "trolleybus": "yes"}}, {"type": "node", "id": 2321205049, "lat": 45.7700176, "lon": 4.8123458, "tags": {"bus": "yes", "name": "Pont K\u0153nig R. D.", "network": "TCL", "public_transport": "stop_position", "trolleybus": "yes"}}, {"type": "node", "id": 2321205050, "lat": 45.7693382, "lon": 4.8146593, "tags": {"bus": "yes", "name": "Pont Ko\u00ebning R. G.", "network": "TCL", "public_transport": "stop_position", "trolleybus": "yes"}}, {"type": "node", "id": 2321205055, "lat": 45.7735142, "lon": 4.8092705, "tags": {"bus": "yes", "name": "Pont Mouton", "network": "TCL", "public_transport": "stop_position", "trolleybus": "yes"}}, {"type": "node", "id": 2321205056, "lat": 45.7666312, "lon": 4.8282366, "tags": {"bus": "yes", "name": "La Feuill\u00e9e", "network": "TCL", "public_transport": "stop_position", "trolleybus": "yes"}}, {"type": "node", "id": 2321205058, "lat": 45.7679705, "lon": 4.8280292, "tags": {"bus": "yes", "name": "Saint-Vincent", "network": "TCL", "public_transport": "stop_position", "trolleybus": "yes"}}, {"type": "node", "id": 2321205100, "lat": 45.7748907, "lon": 4.8062434, "tags": {"bus": "yes", "name": "Valmy", "public_transport": "stop_position", "trolleybus": "yes"}}, {"type": "node", "id": 2321320876, "lat": 45.7535074, "lon": 4.8467574, "tags": {"bus": "yes", "highway": "bus_stop", "name": "Saxe - Gambetta", "network": "TCL", "network:wikidata": "Q8700", "network:wikipedia": "fr:Transports en commun lyonnais", "operator": "Keolis Lyon", "operator:wikidata": "Q61456136", "public_transport": "stop_position", "trolleybus": "yes", "wheelchair": "yes"}}, {"type": "node", "id": 2321320877, "lat": 45.7544172, "lon": 4.8468895, "tags": {"bus": "yes", "highway": "bus_stop", "name": "Saxe - Gambetta", "network": "TCL", "network:wikidata": "Q8700", "network:wikipedia": "fr:Transports en commun lyonnais", "operator": "Keolis Lyon", "operator:wikidata": "Q61456136", "public_transport": "stop_position", "trolleybus": "yes"}}, {"type": "node", "id": 2321320878, "lat": 45.7631749, "lon": 4.845045, "tags": {"bus": "yes", "name": "Saxe - Lafayette", "network": "TCL", "public_transport": "stop_position", "trolleybus": "yes"}}, {"type": "node", "id": 2321320880, "lat": 45.7591401, "lon": 4.8458992, "tags": {"bus": "yes", "name": "Saxe - Pr\u00e9fecture", "network": "TCL", "public_transport": "stop_position", "trolleybus": "yes"}}, {"type": "node", "id": 2321320881, "lat": 45.7597171, "lon": 4.8457771, "tags": {"bus": "yes", "name": "Saxe - Pr\u00e9fecture", "network": "TCL", "public_transport": "stop_position", "trolleybus": "yes"}}, {"type": "node", "id": 2321320886, "lat": 45.7500302, "lon": 4.8447224, "tags": {"bus": "yes", "name": "Thibaudi\u00e8re - Jean Jaur\u00e8s", "network": "TCL", "public_transport": "stop_position", "survey:date": "2023-08-15", "trolleybus": "yes"}}, {"type": "node", "id": 2321320890, "lat": 45.7480137, "lon": 4.8435298, "tags": {"bus": "yes", "name": "Universit\u00e9 - Jean Jaur\u00e8s", "network": "TCL", "public_transport": "stop_position", "survey:date": "2023-08-15", "trolleybus": "yes"}}, {"type": "node", "id": 2322625644, "lat": 45.7517328, "lon": 4.8532829, "tags": {"bus": "yes", "name": "Garibaldi - Gambetta", "network": "TCL", "network:wikidata": "Q8700", "network:wikipedia": "fr:Transports en commun lyonnais", "operator": "Keolis Lyon", "operator:wikidata": "Q61456136", "public_transport": "stop_position"}}, {"type": "node", "id": 2336249327, "lat": 45.747845, "lon": 4.8271566, "tags": {"level": "0", "local_ref": "19", "name": "Lyon-Perrache", "operator": "SNCF Gares & Connexions", "operator:wikidata": "Q3098278", "public_transport": "stop_position", "railway": "stop", "train": "yes", "wheelchair": "yes"}}, {"type": "node", "id": 2336249335, "lat": 45.7478714, "lon": 4.8271836, "tags": {"level": "0", "local_ref": "21", "name": "Lyon-Perrache", "operator": "SNCF Gares & Connexions", "operator:wikidata": "Q3098278", "public_transport": "stop_position", "railway": "stop", "train": "yes", "wheelchair": "yes"}}, {"type": "node", "id": 2336249340, "lat": 45.7479317, "lon": 4.8272383, "tags": {"level": "0", "local_ref": "23", "name": "Lyon-Perrache", "operator": "SNCF Gares & Connexions", "operator:wikidata": "Q3098278", "public_transport": "stop_position", "railway": "stop", "train": "yes", "wheelchair": "yes"}}, {"type": "node", "id": 2336249345, "lat": 45.7479338, "lon": 4.8252797, "tags": {"level": "0", "local_ref": "I", "name": "Lyon-Perrache", "operator": "SNCF R\u00e9seau", "public_transport": "stop_position", "railway": "stop", "train": "yes", "uic_ref": "8772202", "wheelchair": "yes"}}, {"type": "node", "id": 2336249352, "lat": 45.7480087, "lon": 4.8253472, "tags": {"level": "0", "local_ref": "H", "name": "Lyon-Perrache", "operator": "SNCF R\u00e9seau", "public_transport": "stop_position", "railway": "stop", "train": "yes", "uic_ref": "8772202", "wheelchair": "yes"}}, {"type": "node", "id": 2336249355, "lat": 45.7480333, "lon": 4.8253676, "tags": {"level": "0", "local_ref": "G", "name": "Lyon-Perrache", "operator": "SNCF R\u00e9seau", "public_transport": "stop_position", "railway": "stop", "train": "yes", "uic_ref": "8772202", "wheelchair": "yes"}}, {"type": "node", "id": 2336249356, "lat": 45.7481136, "lon": 4.8254381, "tags": {"level": "0", "local_ref": "F", "name": "Lyon-Perrache", "operator": "SNCF R\u00e9seau", "public_transport": "stop_position", "railway": "stop", "train": "yes", "uic_ref": "8772202", "wheelchair": "yes"}}, {"type": "node", "id": 2336249360, "lat": 45.7481465, "lon": 4.8254656, "tags": {"level": "0", "local_ref": "E", "name": "Lyon-Perrache", "operator": "SNCF R\u00e9seau", "public_transport": "stop_position", "railway": "stop", "train": "yes", "uic_ref": "8772202", "wheelchair": "yes"}}, {"type": "node", "id": 2336249367, "lat": 45.7482475, "lon": 4.8255529, "tags": {"level": "0", "local_ref": "C", "name": "Lyon-Perrache", "operator": "SNCF R\u00e9seau", "public_transport": "stop_position", "railway": "stop", "train": "yes", "uic_ref": "8772202", "wheelchair": "yes"}}, {"type": "node", "id": 2336249372, "lat": 45.7483251, "lon": 4.8256183, "tags": {"level": "0", "local_ref": "B", "name": "Lyon-Perrache", "operator": "SNCF R\u00e9seau", "public_transport": "stop_position", "railway": "stop", "train": "yes", "uic_ref": "8772202", "wheelchair": "yes"}}, {"type": "node", "id": 2336249377, "lat": 45.7483545, "lon": 4.8256436, "tags": {"level": "0", "local_ref": "A", "name": "Lyon-Perrache", "operator": "SNCF R\u00e9seau", "public_transport": "stop_position", "railway": "stop", "train": "yes", "uic_ref": "8772202", "wheelchair": "yes"}}, {"type": "node", "id": 2336249382, "lat": 45.7489926, "lon": 4.8242978, "tags": {"level": "0", "local_ref": "3", "operator": "SNCF Gares & Connexions", "operator:wikidata": "Q3098278", "public_transport": "stop_position", "railway": "stop", "train": "yes", "wheelchair": "yes"}}, {"type": "node", "id": 2336249388, "lat": 45.7490216, "lon": 4.8243227, "tags": {"level": "0", "local_ref": "5", "operator": "SNCF Gares & Connexions", "operator:wikidata": "Q3098278", "public_transport": "stop_position", "railway": "stop", "train": "yes", "wheelchair": "yes"}}, {"type": "node", "id": 2336249394, "lat": 45.7490865, "lon": 4.8243703, "tags": {"level": "0", "local_ref": "7", "operator": "SNCF Gares & Connexions", "operator:wikidata": "Q3098278", "public_transport": "stop_position", "railway": "stop", "train": "yes", "wheelchair": "yes"}}, {"type": "node", "id": 2336249399, "lat": 45.7495322, "lon": 4.8270476, "tags": {"name": "Perrache", "network": "TCL", "network:wikidata": "Q8700", "operator": "Keolis Lyon", "operator:wikidata": "Q61456136", "public_transport": "stop_position", "railway": "tram_stop", "tram": "yes", "wheelchair": "yes", "wikidata": "Q1992", "wikipedia": "fr:Gare de Lyon-Perrache"}}, {"type": "node", "id": 2336249406, "lat": 45.7495422, "lon": 4.8270161, "tags": {"name": "Perrache", "network": "TCL", "network:wikidata": "Q8700", "operator": "Keolis Lyon", "operator:wikidata": "Q61456136", "public_transport": "stop_position", "railway": "tram_stop", "ref": "5085", "source": "cadastre-dgi-fr source : Direction G\u00e9n\u00e9rale des Imp\u00f4ts - Cadastre. Mise \u00e0 jour : 2012", "tram": "yes", "wheelchair": "yes", "wikidata": "Q1992", "wikipedia": "fr:Gare de Lyon-Perrache"}}, {"type": "node", "id": 2337072414, "lat": 45.7449016, "lon": 4.8417862, "tags": {"local_ref": "B", "name": "Lyon Jean Mac\u00e9", "operator": "SNCF Gares & Connexions", "operator:wikidata": "Q3098278", "public_transport": "stop_position", "railway": "stop", "train": "yes", "wheelchair": "yes"}}, {"type": "node", "id": 2367184675, "lat": 45.756137, "lon": 4.8340959, "tags": {"bus": "yes", "name": "Bellecour - A. Poncet", "network": "TCL", "public_transport": "stop_position"}}, {"type": "node", "id": 2367184677, "lat": 45.7629274, "lon": 4.8381687, "tags": {"bus": "yes", "name": "Cordeliers", "network": "TCL", "public_transport": "stop_position", "wheelchair": "yes"}}, {"type": "node", "id": 2367184684, "lat": 45.7640129, "lon": 4.8384231, "tags": {"bus": "yes", "name": "Cordeliers", "network": "TCL", "public_transport": "stop_position"}}, {"type": "node", "id": 2367184688, "lat": 45.7680884, "lon": 4.8382477, "tags": {"bus": "yes", "name": "H\u00f4tel de Ville - Louis Pradel", "network": "TCL", "public_transport": "stop_position", "wheelchair": "yes"}}, {"type": "node", "id": 2367184694, "lat": 45.7682769, "lon": 4.8378795, "tags": {"bus": "yes", "name": "H\u00f4tel de Ville - Louis Pradel", "network": "TCL", "public_transport": "stop_position", "route_ref": "132;171"}}, {"type": "node", "id": 2367184738, "lat": 45.7606472, "lon": 4.838052, "tags": {"bus": "yes", "name": "Pont Wilson - Rive Droite", "network": "TCL", "public_transport": "stop_position", "route_ref": "132;171"}}, {"type": "node", "id": 2367184739, "lat": 45.7610985, "lon": 4.8379106, "tags": {"bus": "yes", "name": "Pont Wilson - Rive Droite", "network": "TCL", "public_transport": "stop_position"}}, {"type": "node", "id": 2367184746, "lat": 45.775347, "lon": 4.8394179, "tags": {"bus": "yes", "name": "Pont de Lattre - Rive Droite", "network": "TCL", "public_transport": "stop_position", "wheelchair": "yes"}}, {"type": "node", "id": 2438465562, "lat": 45.7736914, "lon": 4.8095846, "tags": {"bus": "yes", "name": "Pont Mouton", "public_transport": "stop_position"}}, {"type": "node", "id": 2446829560, "lat": 45.7661004, "lon": 4.8098665, "tags": {"bus": "yes", "highway": "bus_stop", "name": "La Vigie", "network": "TCL", "network:wikidata": "Q8700", "network:wikipedia": "fr:Transports en commun lyonnais", "operator": "Keolis Lyon", "operator:wikidata": "Q61456136", "public_transport": "stop_position"}}, {"type": "node", "id": 2457742349, "lat": 45.7416534, "lon": 4.8409454, "tags": {"bus": "yes", "highway": "bus_stop", "lit": "no", "name": "Lortet", "network": "TCL", "network:wikidata": "Q8700", "network:wikipedia": "fr:Transports en commun lyonnais", "operator": "Keolis Lyon", "operator:wikidata": "Q61456136", "public_transport": "stop_position", "tactile_paving": "no"}}, {"type": "node", "id": 2502047729, "lat": 45.7744098, "lon": 4.8212162, "tags": {"bus": "yes", "name": "Claude-Joseph Bonnet", "public_transport": "stop_position", "trolleybus": "yes"}}, {"type": "node", "id": 2502047733, "lat": 45.7748131, "lon": 4.8211408, "tags": {"bus": "yes", "name": "Claude-Joseph Bonnet", "public_transport": "stop_position", "trolleybus": "yes"}}, {"type": "node", "id": 2502047741, "lat": 45.7728667, "lon": 4.8208737, "tags": {"bus": "yes", "name": "Clos Jouve", "public_transport": "stop_position", "trolleybus": "yes"}}, {"type": "node", "id": 2502047750, "lat": 45.7732026, "lon": 4.8219432, "tags": {"bus": "yes", "name": "Clos Jouve", "public_transport": "stop_position", "trolleybus": "yes"}}, {"type": "node", "id": 2502047754, "lat": 45.7734668, "lon": 4.8213837, "tags": {"bus": "yes", "name": "Clos Jouve", "public_transport": "stop_position", "trolleybus": "yes"}}, {"type": "node", "id": 2502047822, "lat": 45.7717364, "lon": 4.817126, "tags": {"bus": "yes", "name": "Les Esses", "public_transport": "stop_position", "trolleybus": "yes"}}, {"type": "node", "id": 2502047826, "lat": 45.7722718, "lon": 4.8176027, "tags": {"bus": "yes", "name": "Les Esses", "network": "TCL", "public_transport": "stop_position"}}, {"type": "node", "id": 2502047831, "lat": 45.7724241, "lon": 4.8194317, "tags": {"bus": "yes", "name": "Les Esses", "public_transport": "stop_position", "trolleybus": "yes"}}, {"type": "node", "id": 2502213024, "lat": 45.7689674, "lon": 4.8185185, "tags": {"bus": "yes", "name": "Duroc", "public_transport": "stop_position", "trolleybus": "yes"}}, {"type": "node", "id": 2502213026, "lat": 45.7690647, "lon": 4.8178415, "tags": {"bus": "yes", "name": "Duroc", "public_transport": "stop_position", "trolleybus": "yes"}}, {"type": "node", "id": 2502213050, "lat": 45.7700956, "lon": 4.8169036, "tags": {"bus": "yes", "name": "La Poudri\u00e8re", "public_transport": "stop_position", "trolleybus": "yes"}}, {"type": "node", "id": 2502213056, "lat": 45.7708471, "lon": 4.8167907, "tags": {"bus": "yes", "name": "La Poudri\u00e8re", "public_transport": "stop_position", "trolleybus": "yes"}}, {"type": "node", "id": 2502213066, "lat": 45.7696453, "lon": 4.8304459, "tags": {"bus": "yes", "name": "Mairie du 1er", "public_transport": "stop_position", "trolleybus": "yes"}}, {"type": "node", "id": 2502213072, "lat": 45.7696463, "lon": 4.8300058, "tags": {"bus": "yes", "name": "Mairie du 1er", "network": "TCL", "public_transport": "stop_position", "trolleybus": "yes"}}, {"type": "node", "id": 2502213092, "lat": 45.7695055, "lon": 4.8250012, "tags": {"bus": "yes", "name": "Rouville", "public_transport": "stop_position", "trolleybus": "yes"}}, {"type": "node", "id": 2502213097, "lat": 45.7695215, "lon": 4.8240209, "tags": {"bus": "yes", "name": "Rouville", "public_transport": "stop_position", "trolleybus": "yes"}}, {"type": "node", "id": 2669203075, "lat": 45.7630455, "lon": 4.8366075, "tags": {"bus": "yes", "name": "Cordeliers", "network": "TCL", "public_transport": "stop_position"}}, {"type": "node", "id": 2764250584, "lat": 45.7616009, "lon": 4.857734, "tags": {"bus": "yes", "highway": "bus_stop", "name": "Gare Part-Dieu - Vivier Merle", "network": "TCL", "network:wikidata": "Q8700", "network:wikipedia": "fr:Transports en commun lyonnais", "operator": "Keolis Lyon", "operator:wikidata": "Q61456136", "public_transport": "stop_position", "trolleybus": "yes"}}, {"type": "node", "id": 2770600398, "lat": 45.7491598, "lon": 4.8274405, "tags": {"bus": "yes", "name": "Gare Routi\u00e8re de Perrache", "public_transport": "stop_position", "wikidata": "Q1992", "wikipedia": "fr:Gare de Lyon-Perrache"}}, {"type": "node", "id": 2770600400, "lat": 45.7495248, "lon": 4.8277278, "tags": {"bus": "yes", "name": "Gare Routi\u00e8re de Perrache", "public_transport": "stop_position", "wikidata": "Q1992", "wikipedia": "fr:Gare de Lyon-Perrache"}}, {"type": "node", "id": 2770600401, "lat": 45.7497241, "lon": 4.8256833, "tags": {"bus": "yes", "name": "Gare Routi\u00e8re de Perrache", "public_transport": "stop_position", "wikidata": "Q1992", "wikipedia": "fr:Gare de Lyon-Perrache"}}, {"type": "node", "id": 2770600402, "lat": 45.7498905, "lon": 4.8259323, "tags": {"bus": "yes", "highway": "bus_stop", "name": "Gare Routi\u00e8re de Perrache", "public_transport": "stop_position", "wheelchair": "yes", "wikidata": "Q1992", "wikipedia": "fr:Gare de Lyon-Perrache"}}, {"type": "node", "id": 2770600406, "lat": 45.7487484, "lon": 4.8260242, "tags": {"bus": "yes", "highway": "bus_stop", "mapillary": "1924992251042187", "name": "Gare de Lyon-Perrache", "network": "Ouibus", "pole": "no", "public_transport": "stop_position", "shelter": "no", "survey:date": "2018-08-12"}}, {"type": "node", "id": 2770600430, "lat": 45.7489549, "lon": 4.8260996, "tags": {"amenity": "taxi", "bus": "yes", "highway": "bus_stop", "mapillary": "1765192423657897", "name": "Gare de Lyon-Perrache", "opening_hours": "Mo-Su 04:45-00:30", "pole": "no", "public_transport": "stop_position", "route_ref": "Lignes Flixbus", "shelter": "no", "survey:date": "2019-06-18"}}, {"type": "node", "id": 2770600477, "lat": 45.7493535, "lon": 4.8267119}, {"type": "node", "id": 2770600482, "lat": 45.7493095, "lon": 4.8269423, "tags": {"bus": "yes", "public_transport": "stop_position"}}, {"type": "node", "id": 2821517107, "lat": 45.7524711, "lon": 4.828995, "tags": {"bus": "yes", "name": "Amp\u00e8re - Victor Hugo", "network": "TCL", "public_transport": "stop_position", "source": "Bing"}}, {"type": "node", "id": 2864756338, "lat": 45.7747376, "lon": 4.8483811, "tags": {"bus": "yes", "name": "Museum", "public_transport": "stop_position", "trolleybus": "yes", "wheelchair": "yes"}}, {"type": "node", "id": 2864756339, "lat": 45.7749558, "lon": 4.847922, "tags": {"bus": "yes", "name": "Museum", "public_transport": "stop_position", "trolleybus": "yes", "wheelchair": "yes"}}, {"type": "node", "id": 2864756340, "lat": 45.7734262, "lon": 4.8510566, "tags": {"bus": "yes", "name": "Parc T\u00eate d'Or - Duquesne", "public_transport": "stop_position", "trolleybus": "yes", "wheelchair": "yes"}}, {"type": "node", "id": 2864756341, "lat": 45.7735209, "lon": 4.8509873, "tags": {"bus": "yes", "name": "Parc T\u00eate d'Or - Duquesne", "public_transport": "stop_position", "trolleybus": "yes", "wheelchair": "yes"}}, {"type": "node", "id": 2864756345, "lat": 45.7704398, "lon": 4.8565356, "tags": {"bus": "yes", "name": "Vitton - Belges", "public_transport": "stop_position", "trolleybus": "yes", "wheelchair": "yes"}}, {"type": "node", "id": 2864922156, "lat": 45.7541682, "lon": 4.8462352, "tags": {"bus": "yes", "highway": "bus_stop", "name": "Saxe - Gambetta", "network": "TCL", "network:wikidata": "Q8700", "network:wikipedia": "fr:Transports en commun lyonnais", "operator": "Keolis Lyon", "operator:wikidata": "Q61456136", "public_transport": "stop_position"}}, {"type": "node", "id": 2926758938, "lat": 45.7455503, "lon": 4.8419584, "tags": {"bus": "yes", "name": "Jean Mac\u00e9", "network": "TCL", "public_transport": "stop_position", "trolleybus": "yes"}}, {"type": "node", "id": 2926758943, "lat": 45.7463259, "lon": 4.8424265, "tags": {"bus": "yes", "name": "Jean Mac\u00e9", "network": "TCL", "public_transport": "stop_position", "trolleybus": "yes"}}, {"type": "node", "id": 3070792203, "lat": 45.7511473, "lon": 4.8389606, "tags": {"name": "Rue de l'Universit\u00e9", "network": "TCL", "network:wikidata": "Q8700", "operator": "Keolis Lyon", "operator:wikidata": "Q61456136", "public_transport": "stop_position", "railway": "tram_stop", "tram": "yes", "wheelchair": "yes"}}, {"type": "node", "id": 3070792204, "lat": 45.7511752, "lon": 4.838979, "tags": {"name": "Rue de l'Universit\u00e9", "network": "TCL", "network:wikidata": "Q8700", "operator": "Keolis Lyon", "operator:wikidata": "Q61456136", "public_transport": "stop_position", "railway": "tram_stop", "source": "cadastre-dgi-fr source : Direction G\u00e9n\u00e9rale des Imp\u00f4ts - Cadastre. Mise \u00e0 jour : 2012", "tram": "yes", "wheelchair": "yes"}}, {"type": "node", "id": 3142558109, "lat": 45.7543931, "lon": 4.8128146, "tags": {"bus": "yes", "name": "Saint-Ir\u00e9n\u00e9e", "network": "TCL", "public_transport": "stop_position"}}, {"type": "node", "id": 3178656553, "lat": 45.7553493, "lon": 4.8423496}, {"type": "node", "id": 3178656557, "lat": 45.7553811, "lon": 4.8423741}, {"type": "node", "id": 3178658773, "lat": 45.7555639, "lon": 4.8425026}, {"type": "node", "id": 3178658775, "lat": 45.7556011, "lon": 4.8425284}, {"type": "node", "id": 3213119581, "lat": 45.7692394, "lon": 4.8378525, "tags": {"bus": "yes", "name": "H\u00f4tel de Ville - Louis Pradel", "public_transport": "stop_position"}}, {"type": "node", "id": 3213119599, "lat": 45.7736936, "lon": 4.8383731, "tags": {"bus": "yes", "name": "Pont de Lattre - Rive Droite", "network": "TCL", "public_transport": "stop_position", "wheelchair": "yes"}}, {"type": "node", "id": 3240906813, "lat": 45.7405832, "lon": 4.8205701, "tags": {"bus": "yes", "name": "Esplanade Mitterrand", "network": "TCL", "public_transport": "stop_position"}}, {"type": "node", "id": 3251363178, "lat": 45.7604212, "lon": 4.8484934, "tags": {"bus": "yes", "name": "Palais de Justice - Mairie du 3e", "network": "TCL", "operator": "K\u00e9olis", "public_transport": "stop_position"}}, {"type": "node", "id": 3349897007, "lat": 45.7530516, "lon": 4.8291603, "tags": {"name": "Amp\u00e8re - Victor Hugo", "network": "TCL", "public_transport": "stop_position", "railway": "stop", "ref": "5000", "subway": "yes", "wheelchair": "yes", "wikidata": "Q2186663", "wikipedia": "fr:Amp\u00e8re - Victor Hugo (m\u00e9tro de Lyon)"}}, {"type": "node", "id": 3349897008, "lat": 45.7575968, "lon": 4.8331128, "tags": {"level": "-1", "name": "Bellecour", "network": "TCL", "public_transport": "stop_position", "railway": "stop", "ref": "5002", "subway": "yes", "wheelchair": "yes", "wikidata": "Q5298", "wikipedia": "fr:Bellecour (m\u00e9tro de Lyon)"}}, {"type": "node", "id": 3349897010, "lat": 45.7633092, "lon": 4.8357895, "tags": {"name": "Cordeliers", "network": "TCL", "public_transport": "stop_position", "railway": "stop", "ref": "5021", "subway": "yes", "wheelchair": "yes", "wikidata": "Q776088", "wikipedia": "fr:Cordeliers (m\u00e9tro de Lyon)"}}, {"type": "node", "id": 3349897013, "lat": 45.7687638, "lon": 4.8443892, "tags": {"name": "Foch", "network": "TCL", "public_transport": "stop_position", "railway": "stop", "ref": "5182", "subway": "yes", "wheelchair": "yes", "wikidata": "Q3497333", "wikipedia": "fr:Foch (m\u00e9tro de Lyon)"}}, {"type": "node", "id": 3349897015, "lat": 45.7672691, "lon": 4.8360162, "tags": {"name": "H\u00f4tel de Ville - Louis Pradel", "network": "TCL", "public_transport": "stop_position", "railway": "stop", "ref": "5046", "subway": "yes", "wheelchair": "yes", "wikidata": "Q613893", "wikipedia": "fr:H\u00f4tel de Ville - Louis Pradel (m\u00e9tro de Lyon)"}}, {"type": "node", "id": 3349897016, "lat": 45.7681512, "lon": 4.836024, "tags": {"name": "H\u00f4tel de Ville - Louis Pradel", "network": "TCL", "public_transport": "stop_position", "railway": "stop", "ref": "5046", "subway": "yes", "wheelchair": "yes", "wikidata": "Q613893", "wikipedia": "fr:H\u00f4tel de Ville - Louis Pradel (m\u00e9tro de Lyon)"}}, {"type": "node", "id": 3349897018, "lat": 45.7695999, "lon": 4.8534191, "tags": {"name": "Mass\u00e9na", "network": "TCL", "public_transport": "stop_position", "railway": "stop", "ref:FR:TCL": "46054", "subway": "yes", "wheelchair": "yes", "wikidata": "Q3497340", "wikipedia": "fr:Mass\u00e9na (m\u00e9tro de Lyon)"}}, {"type": "node", "id": 3349897019, "lat": 45.7496228, "lon": 4.8267713, "tags": {"name": "Perrache", "network": "TCL", "public_transport": "stop_position", "railway": "stop", "ref": "5085", "source": "cadastre-dgi-fr source : Direction G\u00e9n\u00e9rale des Imp\u00f4ts - Cadastre. Mise \u00e0 jour : 2012", "subway": "yes", "wheelchair": "yes", "wikidata": "Q2049305", "wikipedia": "fr:Centre d'\u00e9changes de Perrache"}}, {"type": "node", "id": 3351610291, "lat": 45.761645, "lon": 4.8574339, "tags": {"level": "-2", "name": "Gare Part-Dieu - Vivier Merle", "network": "TCL", "public_transport": "stop_position", "railway": "stop", "subway": "yes", "wheelchair": "yes", "wikidata": "Q1897991", "wikipedia": "fr:Gare Part-Dieu - Vivier Merle (m\u00e9tro de Lyon)"}}, {"type": "node", "id": 3351626493, "lat": 45.7459347, "lon": 4.8422918, "tags": {"name": "Jean Mac\u00e9", "network": "TCL", "public_transport": "stop_position", "railway": "stop", "subway": "yes", "wheelchair": "yes", "wikidata": "Q2059990", "wikipedia": "fr:Jean Mac\u00e9 (m\u00e9tro de Lyon)"}}, {"type": "node", "id": 3351626494, "lat": 45.7592161, "lon": 4.8473512, "tags": {"name": "Place Guichard - Bourse du Travail", "network": "TCL", "public_transport": "stop_position", "railway": "stop", "subway": "yes", "wheelchair": "yes", "wikidata": "Q599865", "wikipedia": "fr:Place Guichard - Bourse du Travail (m\u00e9tro de Lyon)"}}, {"type": "node", "id": 3351626496, "lat": 45.7532993, "lon": 4.8466125, "tags": {"name": "Saxe - Gambetta", "network": "TCL", "public_transport": "stop_position", "railway": "stop", "ref": "5092", "subway": "yes", "wheelchair": "yes", "wikidata": "Q1872405", "wikipedia": "fr:Saxe - Gambetta (m\u00e9tro de Lyon)"}}, {"type": "node", "id": 3351626497, "lat": 45.7566788, "lon": 4.8464178, "tags": {"bus": "yes", "name": "Saxe - Paul Bert", "network": "TCL", "public_transport": "stop_position", "trolleybus": "yes"}}, {"type": "node", "id": 3351626499, "lat": 45.7508618, "lon": 4.845215, "tags": {"bus": "yes", "name": "Thibaudi\u00e8re - Jean Jaur\u00e8s", "network": "TCL", "public_transport": "stop_position", "trolleybus": "yes"}}, {"type": "node", "id": 3351626500, "lat": 45.748522, "lon": 4.843829, "tags": {"bus": "yes", "name": "Universit\u00e9 - Jean Jaur\u00e8s", "network": "TCL", "public_transport": "stop_position", "survey:date": "2023-08-15", "trolleybus": "yes"}}, {"type": "node", "id": 3362091542, "lat": 45.7515988, "lon": 4.8534682, "tags": {"name": "Garibaldi", "network": "TCL", "public_transport": "stop_position", "railway": "stop", "ref": "5181", "subway": "yes", "wheelchair": "yes", "wikidata": "Q2525806", "wikipedia": "fr:Garibaldi (m\u00e9tro de Lyon)"}}, {"type": "node", "id": 3362091544, "lat": 45.7553232, "lon": 4.842822, "tags": {"alt_name": "Guilloti\u00e8re - Gabriel P\u00e9ri", "name": "Guilloti\u00e8re", "network": "TCL", "public_transport": "stop_position", "railway": "stop", "ref": "5044", "station": "subway", "subway": "yes", "wheelchair": "yes", "wikidata": "Q2017224", "wikipedia": "fr:Guilloti\u00e8re - Gabriel P\u00e9ri (m\u00e9tro de Lyon)"}}, {"type": "node", "id": 3362091550, "lat": 45.753884, "lon": 4.8470054, "tags": {"name": "Saxe - Gambetta", "network": "TCL", "public_transport": "stop_position", "railway": "stop", "ref": "5092", "subway": "yes", "wheelchair": "yes", "wikidata": "Q1872405", "wikipedia": "fr:Saxe - Gambetta (m\u00e9tro de Lyon)"}}, {"type": "node", "id": 3362091551, "lat": 45.7539138, "lon": 4.847025, "tags": {"name": "Saxe - Gambetta", "network": "TCL", "public_transport": "stop_position", "railway": "stop", "ref": "5092", "subway": "yes", "wheelchair": "yes", "wikidata": "Q1872405", "wikipedia": "fr:Saxe - Gambetta (m\u00e9tro de Lyon)"}}, {"type": "node", "id": 3377293848, "lat": 45.7743624, "lon": 4.8318291, "tags": {"bus": "yes", "name": "Croix-Rousse", "public_transport": "stop_position", "trolleybus": "yes"}}, {"type": "node", "id": 3377293849, "lat": 45.7743902, "lon": 4.8321761, "tags": {"bus": "yes", "name": "Croix-Rousse", "network": "TCL", "public_transport": "stop_position"}}, {"type": "node", "id": 3397995076, "lat": 45.7570215, "lon": 4.8332692, "tags": {"name": "Bellecour", "network": "TCL", "public_transport": "stop_position", "railway": "stop", "ref": "5002", "subway": "yes", "wheelchair": "yes", "wikidata": "Q5298", "wikipedia": "fr:Bellecour (m\u00e9tro de Lyon)"}}, {"type": "node", "id": 3397995077, "lat": 45.7570913, "lon": 4.8334117, "tags": {"name": "Bellecour", "network": "TCL", "public_transport": "stop_position", "railway": "stop", "ref": "5002", "subway": "yes", "wheelchair": "yes", "wikidata": "Q5298", "wikipedia": "fr:Bellecour (m\u00e9tro de Lyon)"}}, {"type": "node", "id": 3397995081, "lat": 45.7599724, "lon": 4.8258904, "tags": {"funicular": "yes", "name": "Vieux Lyon - Cath\u00e9drale Saint-Jean", "network": "TCL", "public_transport": "stop_position", "railway": "stop", "ref": "5095", "wheelchair": "yes", "wikidata": "Q2418969", "wikipedia": "fr:Vieux Lyon - Cath\u00e9drale Saint-Jean (m\u00e9tro de Lyon)"}}, {"type": "node", "id": 3397995082, "lat": 45.7600559, "lon": 4.8257703, "tags": {"funicular": "yes", "name": "Vieux Lyon - Cath\u00e9drale Saint-Jean", "network": "TCL", "public_transport": "stop_position", "railway": "stop", "ref": "5095", "wheelchair": "yes", "wikidata": "Q2418969", "wikipedia": "fr:Vieux Lyon - Cath\u00e9drale Saint-Jean (m\u00e9tro de Lyon)"}}, {"type": "node", "id": 3397995083, "lat": 45.7601586, "lon": 4.8259612, "tags": {"name": "Vieux Lyon - Cath\u00e9drale Saint-Jean", "network": "TCL", "public_transport": "stop_position", "railway": "stop", "ref": "5095", "subway": "yes", "wheelchair": "yes", "wikidata": "Q2418969", "wikipedia": "fr:Vieux Lyon - Cath\u00e9drale Saint-Jean (m\u00e9tro de Lyon)"}}, {"type": "node", "id": 3416737795, "lat": 45.7573234, "lon": 4.8325262}, {"type": "node", "id": 3416739595, "lat": 45.757305, "lon": 4.8324687, "tags": {"barrier": "turnstile", "bicycle": "no", "foot": "yes", "level": "-1"}}, {"type": "node", "id": 3416739596, "lat": 45.7573238, "lon": 4.8324584, "tags": {"barrier": "turnstile", "bicycle": "no", "foot": "yes", "level": "-1"}}, {"type": "node", "id": 3416739598, "lat": 45.7575354, "lon": 4.8332268}, {"type": "node", "id": 3416739796, "lat": 45.7572473, "lon": 4.8324859}, {"type": "node", "id": 3416739895, "lat": 45.7572994, "lon": 4.8324715}, {"type": "node", "id": 3416739898, "lat": 45.757729, "lon": 4.8337198}, {"type": "node", "id": 3416740293, "lat": 45.7572569, "lon": 4.8324492}, {"type": "node", "id": 3416740294, "lat": 45.7575176, "lon": 4.8333041}, {"type": "node", "id": 3416740295, "lat": 45.7575537, "lon": 4.8332877}, {"type": "node", "id": 3416740494, "lat": 45.7573174, "lon": 4.8324619, "tags": {"barrier": "turnstile", "bicycle": "no", "foot": "yes", "level": "-1"}}, {"type": "node", "id": 3416740594, "lat": 45.7574139, "lon": 4.8328246}, {"type": "node", "id": 3416740693, "lat": 45.7573119, "lon": 4.8324649, "tags": {"barrier": "turnstile", "bicycle": "no", "foot": "yes", "level": "-1"}}, {"type": "node", "id": 3416740895, "lat": 45.7573298, "lon": 4.8324551}, {"type": "node", "id": 3416740896, "lat": 45.7574485, "lon": 4.8327536}, {"type": "node", "id": 3416740897, "lat": 45.7575907, "lon": 4.8334847}, {"type": "node", "id": 3416741193, "lat": 45.7577393, "lon": 4.8337095}, {"type": "node", "id": 3418340295, "lat": 45.7669928, "lon": 4.8360862}, {"type": "node", "id": 3418340296, "lat": 45.7669933, "lon": 4.8360774}, {"type": "node", "id": 3418367294, "lat": 45.766992, "lon": 4.8359737}, {"type": "node", "id": 3418367393, "lat": 45.7669979, "lon": 4.8360865}, {"type": "node", "id": 3418367394, "lat": 45.7672097, "lon": 4.8359821}, {"type": "node", "id": 3418367395, "lat": 45.7674028, "lon": 4.835995}, {"type": "node", "id": 3418367397, "lat": 45.7676847, "lon": 4.8359166}, {"type": "node", "id": 3418367493, "lat": 45.7669922, "lon": 4.8359653}, {"type": "node", "id": 3418367593, "lat": 45.7669962, "lon": 4.8359623}, {"type": "node", "id": 3418367594, "lat": 45.7671534, "lon": 4.8359191}, {"type": "node", "id": 3418367595, "lat": 45.767309, "lon": 4.8360802}, {"type": "node", "id": 3418367693, "lat": 45.7669973, "lon": 4.8359206}, {"type": "node", "id": 3418367694, "lat": 45.7670602, "lon": 4.836078}, {"type": "node", "id": 3418367695, "lat": 45.7674116, "lon": 4.8359529}, {"type": "node", "id": 3418367696, "lat": 45.7675682, "lon": 4.8361951}, {"type": "node", "id": 3418367793, "lat": 45.7671247, "lon": 4.8360768}, {"type": "node", "id": 3418367794, "lat": 45.7673215, "lon": 4.8359277}, {"type": "node", "id": 3418367795, "lat": 45.7676482, "lon": 4.8361153}, {"type": "node", "id": 3418367893, "lat": 45.7672251, "lon": 4.8360777}, {"type": "node", "id": 3418367894, "lat": 45.7673214, "lon": 4.8359503}, {"type": "node", "id": 3418367993, "lat": 45.7673207, "lon": 4.8359164}, {"type": "node", "id": 3418367994, "lat": 45.7673826, "lon": 4.8359509}, {"type": "node", "id": 3418368193, "lat": 45.7673883, "lon": 4.8360832}, {"type": "node", "id": 3418368194, "lat": 45.7674164, "lon": 4.8359401}, {"type": "node", "id": 3418368393, "lat": 45.7674529, "lon": 4.8361404}, {"type": "node", "id": 3418368394, "lat": 45.7676546, "lon": 4.8360124}, {"type": "node", "id": 3418368395, "lat": 45.7676558, "lon": 4.836004}, {"type": "node", "id": 3418368396, "lat": 45.7676889, "lon": 4.8359504}, {"type": "node", "id": 3418368594, "lat": 45.7675381, "lon": 4.8361457}, {"type": "node", "id": 3418368693, "lat": 45.7674817, "lon": 4.8359411}, {"type": "node", "id": 3418368695, "lat": 45.767544, "lon": 4.8360931}, {"type": "node", "id": 3418368696, "lat": 45.7675411, "lon": 4.8361787}, {"type": "node", "id": 3418368697, "lat": 45.7675748, "lon": 4.8361936}, {"type": "node", "id": 3418368698, "lat": 45.7677073, "lon": 4.8360117}, {"type": "node", "id": 3418368699, "lat": 45.76771, "lon": 4.8359877}, {"type": "node", "id": 3418368795, "lat": 45.7677131, "lon": 4.8359593}, {"type": "node", "id": 3418368893, "lat": 45.7675052, "lon": 4.8360886}, {"type": "node", "id": 3418368894, "lat": 45.7675106, "lon": 4.8360011}, {"type": "node", "id": 3418368994, "lat": 45.7675818, "lon": 4.8360944}, {"type": "node", "id": 3418368996, "lat": 45.7676497, "lon": 4.8361051}, {"type": "node", "id": 3418369193, "lat": 45.7675465, "lon": 4.8359421}, {"type": "node", "id": 3418369194, "lat": 45.7675763, "lon": 4.8360041}, {"type": "node", "id": 3418369195, "lat": 45.7676268, "lon": 4.8361814}, {"type": "node", "id": 3418403994, "lat": 45.7678986, "lon": 4.8360447}, {"type": "node", "id": 3418404194, "lat": 45.7683636, "lon": 4.8359071}, {"type": "node", "id": 3418404393, "lat": 45.767894, "lon": 4.8360073}, {"type": "node", "id": 3418404693, "lat": 45.7679167, "lon": 4.8360019}, {"type": "node", "id": 3418404793, "lat": 45.7683624, "lon": 4.8359487}, {"type": "node", "id": 3418404794, "lat": 45.7683649, "lon": 4.8359385}, {"type": "node", "id": 3418427894, "lat": 45.7672023, "lon": 4.8361338, "tags": {"information": "map", "level": "-1"}}, {"type": "node", "id": 3418428293, "lat": 45.7671886, "lon": 4.8361335, "tags": {"information": "map", "level": "-1"}}, {"type": "node", "id": 3418428294, "lat": 45.7674633, "lon": 4.8361402, "tags": {"barrier": "turnstile", "bicycle": "no", "foot": "yes", "indoor": "yes", "level": "-1"}}, {"type": "node", "id": 3418428295, "lat": 45.7674947, "lon": 4.8361425, "tags": {"barrier": "turnstile", "bicycle": "no", "foot": "yes", "indoor": "yes", "level": "-1"}}, {"type": "node", "id": 3418428495, "lat": 45.7674774, "lon": 4.8361412, "tags": {"barrier": "turnstile", "bicycle": "no", "foot": "yes", "indoor": "yes", "level": "-1"}}, {"type": "node", "id": 3418428893, "lat": 45.7675113, "lon": 4.8361437, "tags": {"barrier": "turnstile", "bicycle": "no", "foot": "yes", "indoor": "yes", "level": "-1"}}, {"type": "node", "id": 3418429093, "lat": 45.7675246, "lon": 4.8361449, "tags": {"barrier": "turnstile", "bicycle": "no", "foot": "yes", "indoor": "yes", "level": "-1"}}, {"type": "node", "id": 3418531393, "lat": 45.7575871, "lon": 4.8334988}, {"type": "node", "id": 3418531793, "lat": 45.7576149, "lon": 4.8335829}, {"type": "node", "id": 3418531893, "lat": 45.7576301, "lon": 4.833523}, {"type": "node", "id": 3418531993, "lat": 45.7576484, "lon": 4.8336218}, {"type": "node", "id": 3418532193, "lat": 45.7576548, "lon": 4.8336055}, {"type": "node", "id": 3418532194, "lat": 45.7576668, "lon": 4.8336563}, {"type": "node", "id": 3431807663, "lat": 45.757376, "lon": 4.8325369}, {"type": "node", "id": 3431807664, "lat": 45.7573852, "lon": 4.832739}, {"type": "node", "id": 3431807667, "lat": 45.7574415, "lon": 4.8329101}, {"type": "node", "id": 3431807669, "lat": 45.7574849, "lon": 4.8330504}, {"type": "node", "id": 3431807673, "lat": 45.7574854, "lon": 4.8334266}, {"type": "node", "id": 3431807675, "lat": 45.7575156, "lon": 4.8331574}, {"type": "node", "id": 3434620543, "lat": 45.752727, "lon": 4.8289085}, {"type": "node", "id": 3434620544, "lat": 45.7527272, "lon": 4.8290553}, {"type": "node", "id": 3434620545, "lat": 45.7527273, "lon": 4.8289559}, {"type": "node", "id": 3434620546, "lat": 45.7527273, "lon": 4.8290025}, {"type": "node", "id": 3434620547, "lat": 45.7527273, "lon": 4.8290394}, {"type": "node", "id": 3434620548, "lat": 45.7527297, "lon": 4.8289028}, {"type": "node", "id": 3434620549, "lat": 45.7529221, "lon": 4.8290244}, {"type": "node", "id": 3434620550, "lat": 45.7529805, "lon": 4.8288375}, {"type": "node", "id": 3434620553, "lat": 45.7531151, "lon": 4.8295052}, {"type": "node", "id": 3434620554, "lat": 45.753152, "lon": 4.8293164}, {"type": "node", "id": 3434620555, "lat": 45.7531595, "lon": 4.8293411}, {"type": "node", "id": 3434620556, "lat": 45.753162, "lon": 4.8295306, "tags": {"entrance": "yes", "railway": "subway_entrance", "wheelchair": "yes"}}, {"type": "node", "id": 3434620558, "lat": 45.7531834, "lon": 4.8295419}, {"type": "node", "id": 3434620559, "lat": 45.7532294, "lon": 4.8293729}, {"type": "node", "id": 3434620560, "lat": 45.75325, "lon": 4.829232}, {"type": "node", "id": 3434620561, "lat": 45.7532698, "lon": 4.8290179}, {"type": "node", "id": 3434620562, "lat": 45.753425, "lon": 4.8294942}, {"type": "node", "id": 3434620563, "lat": 45.7534282, "lon": 4.8294785}, {"type": "node", "id": 3434620564, "lat": 45.7534377, "lon": 4.8294391}, {"type": "node", "id": 3434620565, "lat": 45.7534472, "lon": 4.8294029}, {"type": "node", "id": 3434620566, "lat": 45.7534583, "lon": 4.8293644}, {"type": "node", "id": 3434620567, "lat": 45.7534588, "lon": 4.8293554}, {"type": "node", "id": 3436733477, "lat": 45.7478641, "lon": 4.8252848}, {"type": "node", "id": 3436733478, "lat": 45.7478911, "lon": 4.8253315}, {"type": "node", "id": 3436733479, "lat": 45.7478989, "lon": 4.8253138}, {"type": "node", "id": 3436733480, "lat": 45.7479033, "lon": 4.8251935}, {"type": "node", "id": 3436733481, "lat": 45.747936, "lon": 4.8252162}, {"type": "node", "id": 3436733482, "lat": 45.7479433, "lon": 4.8252041}, {"type": "node", "id": 3436733485, "lat": 45.7488032, "lon": 4.8261066}, {"type": "node", "id": 3436733486, "lat": 45.7488063, "lon": 4.8260974}, {"type": "node", "id": 3436733487, "lat": 45.7488554, "lon": 4.8259824}, {"type": "node", "id": 3436733488, "lat": 45.7488555, "lon": 4.8259731}, {"type": "node", "id": 3436733489, "lat": 45.7490196, "lon": 4.8262835}, {"type": "node", "id": 3436733490, "lat": 45.7490996, "lon": 4.8264061}, {"type": "node", "id": 3436733491, "lat": 45.7493229, "lon": 4.8268124}, {"type": "node", "id": 3436733492, "lat": 45.7493719, "lon": 4.8266545}, {"type": "node", "id": 3436733693, "lat": 45.7493849, "lon": 4.8264253}, {"type": "node", "id": 3436733694, "lat": 45.7494683, "lon": 4.8264969}, {"type": "node", "id": 3440498785, "lat": 45.7550914, "lon": 4.8431828}, {"type": "node", "id": 3440498786, "lat": 45.7551201, "lon": 4.8428463}, {"type": "node", "id": 3440498787, "lat": 45.7551204, "lon": 4.8433079}, {"type": "node", "id": 3440498789, "lat": 45.7551285, "lon": 4.8428681}, {"type": "node", "id": 3440498791, "lat": 45.7551483, "lon": 4.8433265}, {"type": "node", "id": 3440501095, "lat": 45.7551762, "lon": 4.8433451}, {"type": "node", "id": 3440501096, "lat": 45.7551841, "lon": 4.8429092}, {"type": "node", "id": 3440501097, "lat": 45.7552041, "lon": 4.8433637}, {"type": "node", "id": 3440501098, "lat": 45.7552139, "lon": 4.8427028}, {"type": "node", "id": 3440501099, "lat": 45.755293, "lon": 4.8433258}, {"type": "node", "id": 3440501100, "lat": 45.7553328, "lon": 4.8431981}, {"type": "node", "id": 3440501101, "lat": 45.7553521, "lon": 4.8431445}, {"type": "node", "id": 3440501102, "lat": 45.7553552, "lon": 4.8422957}, {"type": "node", "id": 3440501104, "lat": 45.7553583, "lon": 4.843285}, {"type": "node", "id": 3440501106, "lat": 45.7553653, "lon": 4.8423029}, {"type": "node", "id": 3440501108, "lat": 45.7553985, "lon": 4.8423236}, {"type": "node", "id": 3440501111, "lat": 45.7554432, "lon": 4.842356}, {"type": "node", "id": 3440501112, "lat": 45.755446, "lon": 4.8429959}, {"type": "node", "id": 3440501113, "lat": 45.7554533, "lon": 4.8430133}, {"type": "node", "id": 3440501114, "lat": 45.7554724, "lon": 4.8423773}, {"type": "node", "id": 3440501117, "lat": 45.7555071, "lon": 4.8424027}, {"type": "node", "id": 3440501118, "lat": 45.7555351, "lon": 4.8424232}, {"type": "node", "id": 3440501119, "lat": 45.7555661, "lon": 4.8430051}, {"type": "node", "id": 3440501121, "lat": 45.7555547, "lon": 4.8431704}, {"type": "node", "id": 3440501122, "lat": 45.7555808, "lon": 4.8424529}, {"type": "node", "id": 3440501125, "lat": 45.7556175, "lon": 4.8424802}, {"type": "node", "id": 3440501126, "lat": 45.7556219, "lon": 4.8424838}, {"type": "node", "id": 3451536321, "lat": 45.7565093, "lon": 4.8338554}, {"type": "node", "id": 3451536328, "lat": 45.7565539, "lon": 4.8339438}, {"type": "node", "id": 3452168825, "lat": 45.757191, "lon": 4.8331345}, {"type": "node", "id": 3478578099, "lat": 45.7725184, "lon": 4.8382077, "tags": {"bus": "yes", "name": "Pont de Lattre - Rive Droite", "network": "TCL", "public_transport": "stop_position", "wheelchair": "no"}}, {"type": "node", "id": 3478578102, "lat": 45.7744985, "lon": 4.8129927, "tags": {"bus": "yes", "name": "Serin - Saint-Charles", "network": "TCL", "public_transport": "stop_position", "wheelchair": "yes"}}, {"type": "node", "id": 3558445774, "lat": 45.7669237, "lon": 4.8315111, "tags": {"bus": "yes", "name": "Terreaux La Feuill\u00e9e", "public_transport": "stop_position", "trolleybus": "yes"}}, {"type": "node", "id": 3558445775, "lat": 45.7673486, "lon": 4.8313045, "tags": {"bus": "yes", "name": "Terreaux La Feuill\u00e9e", "network": "TCL", "public_transport": "stop_position", "trolleybus": "yes"}}, {"type": "node", "id": 3558445778, "lat": 45.7679194, "lon": 4.8313908, "tags": {"bus": "yes", "name": "Terreaux Tobie Robatel", "public_transport": "stop_position", "trolleybus": "yes"}}, {"type": "node", "id": 3593703900, "lat": 45.7517065, "lon": 4.8360391, "tags": {"name": "Bateau-restaurant Herm\u00e8s (Croisi\u00e8res repas \u00e0 Lyon)", "phone": "+33 4 78 42 96 81", "public_transport": "stop_position"}}, {"type": "node", "id": 3593704141, "lat": 45.7503561, "lon": 4.8349855, "tags": {"name": "Croisi\u00e8res repas \u00e0 Lyon", "public_transport": "stop_position", "website": "http://www.lyoncityboat.com/"}}, {"type": "node", "id": 3706957979, "lat": 45.7725029, "lon": 4.8435967, "tags": {"bus": "yes", "name": "Duquesne - Foch", "network": "TCL", "public_transport": "stop_position", "wheelchair": "yes"}}, {"type": "node", "id": 3706957984, "lat": 45.7729692, "lon": 4.8486389, "tags": {"bus": "yes", "name": "F\u00e9lix Jacquier", "network": "TCL", "public_transport": "stop_position", "wheelchair": "yes"}}, {"type": "node", "id": 3706957994, "lat": 45.7731157, "lon": 4.8503298, "tags": {"bus": "yes", "name": "Parc T\u00eate d'Or - Duquesne", "network": "TCL", "public_transport": "stop_position", "wheelchair": "yes"}}, {"type": "node", "id": 3734029500, "lat": 45.7559396, "lon": 4.8429419, "tags": {"bus": "yes", "name": "Guilloti\u00e8re - Gabriel P\u00e9ri", "network": "TCL", "public_transport": "stop_position"}}, {"type": "node", "id": 3792682276, "lat": 45.7669967, "lon": 4.8359489}, {"type": "node", "id": 3792685510, "lat": 45.7673214, "lon": 4.8359391, "tags": {"level": "0", "name": "H\u00f4tel de Ville - Louis Pradel", "railway": "subway_entrance", "wheelchair": "no"}}, {"type": "node", "id": 3826054457, "lat": 45.7550996, "lon": 4.8435784, "tags": {"bus": "yes", "name": "Guilloti\u00e8re - Gabriel P\u00e9ri", "public_transport": "stop_position"}}, {"type": "node", "id": 3826054458, "lat": 45.7556633, "lon": 4.8420488, "tags": {"bus": "yes", "highway": "bus_stop", "name": "Guilloti\u00e8re - Gabriel P\u00e9ri", "network": "TCL", "network:wikidata": "Q8700", "network:wikipedia": "fr:Transports en commun lyonnais", "operator": "Keolis Lyon", "operator:wikidata": "Q61456136", "public_transport": "stop_position"}}, {"type": "node", "id": 3826054459, "lat": 45.7537656, "lon": 4.8474102, "tags": {"bus": "yes", "highway": "bus_stop", "name": "Saxe - Gambetta", "network": "TCL", "network:wikidata": "Q8700", "network:wikipedia": "fr:Transports en commun lyonnais", "operator": "Keolis Lyon", "operator:wikidata": "Q61456136", "public_transport": "stop_position", "trolleybus": "yes"}}, {"type": "node", "id": 3832654556, "lat": 45.7587867, "lon": 4.8425454, "tags": {"bus": "yes", "name": "Libert\u00e9", "network": "TCL", "public_transport": "stop_position"}}, {"type": "node", "id": 3832723660, "lat": 45.7531951, "lon": 4.8478661, "tags": {"bus": "yes", "name": "Saxe - Gambetta", "network": "TCL", "public_transport": "stop_position", "trolleybus": "yes"}}, {"type": "node", "id": 3832826342, "lat": 45.7529117, "lon": 4.8498989, "tags": {"bus": "yes", "highway": "bus_stop", "name": "Abondance", "network": "TCL", "network:wikidata": "Q8700", "network:wikipedia": "fr:Transports en commun lyonnais", "operator": "Keolis Lyon", "operator:wikidata": "Q61456136", "public_transport": "stop_position", "trolleybus": "yes"}}, {"type": "node", "id": 3833020952, "lat": 45.7526877, "lon": 4.8513985, "tags": {"bus": "yes", "highway": "bus_stop", "name": "Abondance", "network": "TCL", "network:wikidata": "Q8700", "network:wikipedia": "fr:Transports en commun lyonnais", "operator": "Keolis Lyon", "operator:wikidata": "Q61456136", "public_transport": "stop_position", "trolleybus": "yes"}}, {"type": "node", "id": 3844986264, "lat": 45.7743527, "lon": 4.8427047, "tags": {"bus": "yes", "name": "Barr\u00e8me", "network": "TCL", "public_transport": "stop_position", "trolleybus": "yes"}}, {"type": "node", "id": 3844986265, "lat": 45.7753381, "lon": 4.8429483, "tags": {"bus": "yes", "name": "Barr\u00e8me", "network": "TCL", "public_transport": "stop_position", "trolleybus": "yes"}}, {"type": "node", "id": 3844986266, "lat": 45.7721711, "lon": 4.843155, "tags": {"bus": "yes", "name": "Duquesne - Foch", "network": "TCL", "public_transport": "stop_position", "trolleybus": "yes"}}, {"type": "node", "id": 3844986267, "lat": 45.7730009, "lon": 4.8429818, "tags": {"bus": "yes", "name": "Duquesne - Foch", "network": "TCL", "public_transport": "stop_position", "trolleybus": "yes"}}, {"type": "node", "id": 3844986268, "lat": 45.7682732, "lon": 4.8439656, "tags": {"bus": "yes", "name": "Foch - Roosevelt Metro", "network": "TCL", "public_transport": "stop_position", "trolleybus": "yes"}}, {"type": "node", "id": 3844986269, "lat": 45.7690875, "lon": 4.8437948, "tags": {"bus": "yes", "name": "Foch - Roosevelt Metro", "network": "TCL", "public_transport": "stop_position", "trolleybus": "yes"}}, {"type": "node", "id": 3845035277, "lat": 45.7639809, "lon": 4.8448744, "tags": {"bus": "yes", "name": "Saxe - Lafayette", "network": "TCL", "public_transport": "stop_position", "trolleybus": "yes"}}, {"type": "node", "id": 3846297539, "lat": 45.7468096, "lon": 4.844786, "tags": {"bus": "yes", "name": "Domer - Chevreul", "network": "TCL", "public_transport": "stop_position"}}, {"type": "node", "id": 3846297540, "lat": 45.7602049, "lon": 4.8451882, "tags": {"bus": "yes", "name": "Saxe - Pr\u00e9fecture", "network": "TCL", "public_transport": "stop_position"}}, {"type": "node", "id": 3846436001, "lat": 45.7450346, "lon": 4.8491392, "tags": {"bus": "yes", "highway": "bus_stop", "name": "Lamothe - Madeleine", "network": "TCL", "network:wikidata": "Q8700", "network:wikipedia": "fr:Transports en commun lyonnais", "operator": "Keolis Lyon", "operator:wikidata": "Q61456136", "public_transport": "stop_position"}}, {"type": "node", "id": 3846436006, "lat": 45.7430904, "lon": 4.8504438, "tags": {"bus": "yes", "highway": "bus_stop", "name": "Route de Vienne", "network": "TCL", "network:wikidata": "Q8700", "network:wikipedia": "fr:Transports en commun lyonnais", "operator": "Keolis Lyon", "operator:wikidata": "Q61456136", "public_transport": "stop_position"}}, {"type": "node", "id": 3859056721, "lat": 45.7621596, "lon": 4.8523754, "tags": {"bus": "yes", "name": "Part-Dieu - Auditorium", "network": "TCL", "public_transport": "stop_position"}}, {"type": "node", "id": 3859056722, "lat": 45.7601417, "lon": 4.8523094, "tags": {"bus": "yes", "name": "Part-Dieu - Servient", "network": "TCL", "public_transport": "stop_position"}}, {"type": "node", "id": 3859056723, "lat": 45.7606042, "lon": 4.8514045, "tags": {"bus": "yes", "name": "Part-Dieu - Servient", "network": "TCL", "public_transport": "stop_position"}}, {"type": "node", "id": 3859056724, "lat": 45.7609601, "lon": 4.852156, "tags": {"bus": "yes", "name": "Part-Dieu - Servient", "public_transport": "stop_position", "trolleybus": "yes"}}, {"type": "node", "id": 3859056725, "lat": 45.7616557, "lon": 4.8459061, "tags": {"bus": "yes", "name": "Saxe - Bonnel", "network": "TCL", "public_transport": "stop_position"}}, {"type": "node", "id": 3861820257, "lat": 45.755906, "lon": 4.835027, "tags": {"bus": "yes", "name": "Bellecour - A. Poncet", "network": "TCL", "public_transport": "stop_position"}}, {"type": "node", "id": 3861820258, "lat": 45.7559784, "lon": 4.8347317, "tags": {"bus": "yes", "name": "Bellecour - A. Poncet", "network": "TCL", "public_transport": "stop_position"}}, {"type": "node", "id": 3861820259, "lat": 45.7560706, "lon": 4.8343572, "tags": {"bus": "yes", "name": "Bellecour - A. Poncet", "network": "TCL", "public_transport": "stop_position"}}, {"type": "node", "id": 3861891658, "lat": 45.7573021, "lon": 4.8337628, "tags": {"bus": "yes", "name": "Bellecour - A. Poncet", "network": "TCL", "public_transport": "stop_position"}}, {"type": "node", "id": 3861891659, "lat": 45.7575149, "lon": 4.8338857, "tags": {"bus": "yes", "name": "Bellecour - A. Poncet", "network": "TCL", "public_transport": "stop_position"}}, {"type": "node", "id": 3864927643, "lat": 45.7610707, "lon": 4.8312911, "tags": {"bus": "yes", "name": "Passerelle - Palais de Justice", "public_transport": "stop_position"}}, {"type": "node", "id": 3871342466, "lat": 45.740176, "lon": 4.8405412, "tags": {"bus": "yes", "name": "Place Jean Jaur\u00e8s", "network": "TCL", "public_transport": "stop_position"}}, {"type": "node", "id": 3949440474, "lat": 45.7628506, "lon": 4.8366828, "tags": {"bus": "yes", "name": "Cordeliers", "network": "TCL", "public_transport": "stop_position"}}, {"type": "node", "id": 4112341991, "lat": 45.7747483, "lon": 4.8304379, "tags": {"bus": "yes", "name": "Place des Tapis", "network": "TCL", "public_transport": "stop_position"}}, {"type": "node", "id": 4112342061, "lat": 45.7755558, "lon": 4.8300414, "tags": {"bus": "yes", "name": "Place des Tapis", "network": "TCL", "public_transport": "stop_position"}}, {"type": "node", "id": 4271138164, "lat": 45.7740215, "lon": 4.8274831, "tags": {"bus": "yes", "name": "Mairie du 4e", "public_transport": "stop_position", "trolleybus": "yes"}}, {"type": "node", "id": 4271138165, "lat": 45.7740721, "lon": 4.8281586, "tags": {"bus": "yes", "name": "Mairie du 4e", "public_transport": "stop_position", "trolleybus": "yes"}}, {"type": "node", "id": 4319937398, "lat": 45.7504883, "lon": 4.8192049, "tags": {"bus": "yes", "highway": "bus_stop", "name": "Les \u00c9troits", "network": "TCL", "network:wikidata": "Q8700", "network:wikipedia": "fr:Transports en commun lyonnais", "operator": "Keolis Lyon", "operator:wikidata": "Q61456136", "public_transport": "stop_position"}}, {"type": "node", "id": 4319937399, "lat": 45.7480082, "lon": 4.8155414, "tags": {"bus": "yes", "highway": "bus_stop", "name": "Terrasse", "network": "TCL", "network:wikidata": "Q8700", "network:wikipedia": "fr:Transports en commun lyonnais", "operator": "Keolis Lyon", "operator:wikidata": "Q61456136", "public_transport": "stop_position"}}, {"type": "node", "id": 4368594258, "lat": 45.7644295, "lon": 4.833162, "tags": {"bus": "yes", "name": "Saint-Nizier", "network": "TCL", "public_transport": "stop_position"}}, {"type": "node", "id": 4368594260, "lat": 45.7647554, "lon": 4.8342891, "tags": {"bus": "yes", "name": "Saint-Nizier", "network": "TCL", "public_transport": "stop_position"}}, {"type": "node", "id": 4414266522, "lat": 45.7723165, "lon": 4.8302605, "tags": {"bus": "yes", "name": "Allouche", "network": "TCL", "public_transport": "stop_position"}}, {"type": "node", "id": 4554886611, "lat": 45.7591975, "lon": 4.8089698, "tags": {"bus": "yes", "name": "Les P\u00e9pini\u00e8res", "public_transport": "stop_position"}}, {"type": "node", "id": 4554886612, "lat": 45.7593841, "lon": 4.8083481, "tags": {"bus": "yes", "name": "Les P\u00e9pini\u00e8res", "public_transport": "stop_position"}}, {"type": "node", "id": 4554886616, "lat": 45.7523303, "lon": 4.8221744, "tags": {"bus": "yes", "name": "Pont Kitchener - Rive Droite", "public_transport": "stop_position"}}, {"type": "node", "id": 4554886617, "lat": 45.7540253, "lon": 4.8235802, "tags": {"bus": "yes", "name": "Quarantaine", "public_transport": "stop_position"}}, {"type": "node", "id": 4554886618, "lat": 45.7575663, "lon": 4.825761, "tags": {"bus": "yes", "check_date": "2024-03-13", "name": "Saint-Georges", "public_transport": "stop_position"}}, {"type": "node", "id": 4554886623, "lat": 45.7732671, "lon": 4.8099101, "tags": {"bus": "yes", "name": "Pont Mouton", "public_transport": "stop_position", "trolleybus": "yes"}}, {"type": "node", "id": 4554886625, "lat": 45.7510891, "lon": 4.8140939, "tags": {"alt_name": "Premi\u00e8re division fran\u00e7aise libre", "bus": "yes", "name": "1\u00e8re DFL", "public_transport": "stop_position"}}, {"type": "node", "id": 4554886628, "lat": 45.7551507, "lon": 4.8078605, "tags": {"bus": "yes", "name": "Saint-Ir\u00e9n\u00e9e - Croix Blanche", "public_transport": "stop_position"}}, {"type": "node", "id": 4555929214, "lat": 45.7742256, "lon": 4.8132775, "tags": {"bus": "yes", "name": "Serin - Saint-Charles", "network": "TCL", "public_transport": "stop_position"}}, {"type": "node", "id": 4555929215, "lat": 45.774159, "lon": 4.8133616, "tags": {"bus": "yes", "name": "Serin - Saint-Charles", "network": "TCL", "public_transport": "stop_position"}}, {"type": "node", "id": 4555929221, "lat": 45.7629434, "lon": 4.8077465, "tags": {"bus": "yes", "name": "Pierre Audry", "network": "TCL", "public_transport": "stop_position"}}, {"type": "node", "id": 4555929222, "lat": 45.7625448, "lon": 4.8080706, "tags": {"bus": "yes", "name": "Pierre Audry", "network": "TCL", "public_transport": "stop_position"}}, {"type": "node", "id": 4555929223, "lat": 45.7748555, "lon": 4.8324772, "tags": {"bus": "yes", "name": "Croix-Rousse", "public_transport": "stop_position", "trolleybus": "yes"}}, {"type": "node", "id": 4555929224, "lat": 45.774747, "lon": 4.8324803, "tags": {"bus": "yes", "name": "Croix-Rousse", "network": "TCL", "public_transport": "stop_position"}}, {"type": "node", "id": 4555929225, "lat": 45.774635, "lon": 4.8329445, "tags": {"bus": "yes", "name": "Croix-Rousse", "network": "TCL", "public_transport": "stop_position", "trolleybus": "yes"}}, {"type": "node", "id": 4555929226, "lat": 45.7745315, "lon": 4.8328613, "tags": {"bus": "yes", "name": "Croix-Rousse", "network": "TCL", "public_transport": "stop_position"}}, {"type": "node", "id": 4555929227, "lat": 45.7744368, "lon": 4.832768, "tags": {"bus": "yes", "name": "Croix-Rousse", "network": "TCL", "public_transport": "stop_position"}}, {"type": "node", "id": 4555929231, "lat": 45.7568626, "lon": 4.8146099, "tags": {"bus": "yes", "name": "Saint-Alexandre", "public_transport": "stop_position"}}, {"type": "node", "id": 4555929232, "lat": 45.7564576, "lon": 4.8150597, "tags": {"bus": "yes", "name": "Saint-Alexandre", "public_transport": "stop_position"}}, {"type": "node", "id": 4556007986, "lat": 45.7404341, "lon": 4.8159651, "tags": {"bus": "yes", "name": "Montrochet", "public_transport": "stop_position"}}, {"type": "node", "id": 4556007987, "lat": 45.7403017, "lon": 4.8158511, "tags": {"bus": "yes", "name": "Montrochet", "public_transport": "stop_position"}}, {"type": "node", "id": 4556007988, "lat": 45.7647332, "lon": 4.8064627, "tags": {"bus": "yes", "name": "Professeur Gu\u00e9rin", "public_transport": "stop_position"}}, {"type": "node", "id": 4556007989, "lat": 45.7577235, "lon": 4.814366, "tags": {"bus": "yes", "name": "Trion", "public_transport": "stop_position"}}, {"type": "node", "id": 4556007990, "lat": 45.7575889, "lon": 4.812837, "tags": {"bus": "yes", "name": "Trion", "public_transport": "stop_position"}}, {"type": "node", "id": 4556007991, "lat": 45.7581282, "lon": 4.8126107, "tags": {"bus": "yes", "name": "Trion", "public_transport": "stop_position"}}, {"type": "node", "id": 4556007992, "lat": 45.7585525, "lon": 4.8127047, "tags": {"bus": "yes", "name": "Trion", "public_transport": "stop_position"}}, {"type": "node", "id": 4574272191, "lat": 45.7605139, "lon": 4.8340272, "tags": {"bus": "yes", "name": "Jacobins", "public_transport": "stop_position"}}, {"type": "node", "id": 4574272192, "lat": 45.761306, "lon": 4.8333764, "tags": {"bus": "yes", "name": "Jacobins", "public_transport": "stop_position"}}, {"type": "node", "id": 4574272195, "lat": 45.7597341, "lon": 4.8301695, "tags": {"bus": "yes", "name": "Pont Bonaparte", "public_transport": "stop_position"}}, {"type": "node", "id": 4574272197, "lat": 45.7580631, "lon": 4.8282994, "tags": {"bus": "yes", "name": "Quai Tilsitt", "public_transport": "stop_position"}}, {"type": "node", "id": 4574272199, "lat": 45.7589086, "lon": 4.8339443, "tags": {"bus": "yes", "name": "Simon Maupin", "public_transport": "stop_position"}}, {"type": "node", "id": 4574272200, "lat": 45.7583901, "lon": 4.8331878, "tags": {"bus": "yes", "name": "Simon Maupin", "public_transport": "stop_position", "survey:date": "2025-03-24"}}, {"type": "node", "id": 4574272203, "lat": 45.7561561, "lon": 4.8332444, "tags": {"bus": "yes", "name": "Bellecour Charit\u00e9", "public_transport": "stop_position"}}, {"type": "node", "id": 4574272204, "lat": 45.7561007, "lon": 4.8332583, "tags": {"bus": "yes", "name": "Bellecour Charit\u00e9", "public_transport": "stop_position"}}, {"type": "node", "id": 4574272216, "lat": 45.7533232, "lon": 4.8259159, "tags": {"bus": "yes", "check_date": "2024-03-12", "name": "Ainay", "public_transport": "stop_position"}}, {"type": "node", "id": 4574272217, "lat": 45.7535364, "lon": 4.8258855, "tags": {"bus": "yes", "check_date": "2024-03-12", "name": "Ainay", "public_transport": "stop_position"}}, {"type": "node", "id": 4574272220, "lat": 45.7520601, "lon": 4.8248414, "tags": {"bus": "yes", "name": "Gensoul", "public_transport": "stop_position"}}, {"type": "node", "id": 4574272223, "lat": 45.7508181, "lon": 4.8243041, "tags": {"bus": "yes", "name": "Pont Kitchener - Rive Gauche", "public_transport": "stop_position"}}, {"type": "node", "id": 4574272224, "lat": 45.7521857, "lon": 4.8243796, "tags": {"bus": "yes", "name": "Pont Kitchener - Rive Gauche", "public_transport": "stop_position"}}, {"type": "node", "id": 4574272227, "lat": 45.7500486, "lon": 4.8227115, "tags": {"bus": "yes", "name": "Verdun - Rambaud", "public_transport": "stop_position"}}, {"type": "node", "id": 4574272237, "lat": 45.7422395, "lon": 4.8219748, "tags": {"bus": "yes", "name": "Charlemagne - C.-Perier", "public_transport": "stop_position"}}, {"type": "node", "id": 4574272238, "lat": 45.7420817, "lon": 4.8225458, "tags": {"bus": "yes", "name": "Charlemagne - C.-Perier", "public_transport": "stop_position"}}, {"type": "node", "id": 4574272241, "lat": 45.7414327, "lon": 4.8242707, "tags": {"bus": "yes", "name": "Casimir P\u00e9rier", "public_transport": "stop_position"}}, {"type": "node", "id": 4574272244, "lat": 45.7434794, "lon": 4.826017, "tags": {"bus": "yes", "name": "Ravat", "public_transport": "stop_position"}}, {"type": "node", "id": 4574272245, "lat": 45.7439126, "lon": 4.8241301, "tags": {"bus": "yes", "name": "Ravat", "public_transport": "stop_position"}}, {"type": "node", "id": 4574272246, "lat": 45.7440962, "lon": 4.8235496, "tags": {"bus": "yes", "name": "Ravat", "public_transport": "stop_position"}}, {"type": "node", "id": 4574272247, "lat": 45.7453332, "lon": 4.8246087, "tags": {"bus": "yes", "name": "Marc-Antoine Petit", "public_transport": "stop_position"}}, {"type": "node", "id": 4574272249, "lat": 45.7457977, "lon": 4.8257164, "tags": {"bus": "yes", "name": "Marc-Antoine Petit", "public_transport": "stop_position"}}, {"type": "node", "id": 4575488361, "lat": 45.7718829, "lon": 4.8264015, "tags": {"bus": "yes", "name": "Place Morel", "public_transport": "stop_position"}}, {"type": "node", "id": 4575488362, "lat": 45.7727247, "lon": 4.8217094, "tags": {"bus": "yes", "name": "Les Chartreux", "public_transport": "stop_position"}}, {"type": "node", "id": 4575488367, "lat": 45.7713061, "lon": 4.8313873, "tags": {"bus": "yes", "name": "Neyret", "public_transport": "stop_position", "trolleybus": "yes"}}, {"type": "node", "id": 4575488368, "lat": 45.7703059, "lon": 4.8321468, "tags": {"bus": "yes", "name": "Burdeau", "public_transport": "stop_position"}}, {"type": "node", "id": 4575488369, "lat": 45.7729087, "lon": 4.8321792, "tags": {"bus": "yes", "name": "Grande C\u00f4te", "public_transport": "stop_position"}}, {"type": "node", "id": 4575488371, "lat": 45.7723899, "lon": 4.8344453, "tags": {"bus": "yes", "name": "Colbert", "network": "TCL", "public_transport": "stop_position", "trolleybus": "yes"}}, {"type": "node", "id": 4575488372, "lat": 45.7726027, "lon": 4.8343669, "tags": {"bus": "yes", "name": "Colbert", "network": "TCL", "public_transport": "stop_position", "trolleybus": "yes"}}, {"type": "node", "id": 4575488381, "lat": 45.7709245, "lon": 4.8331418, "tags": {"bus": "yes", "name": "Tables Claudiennes", "public_transport": "stop_position", "trolleybus": "yes"}}, {"type": "node", "id": 4576330314, "lat": 45.7514534, "lon": 4.8365904, "tags": {"bus": "yes", "name": "Rue de l'Universit\u00e9", "public_transport": "stop_position"}}, {"type": "node", "id": 4576330315, "lat": 45.743894, "lon": 4.8476046, "tags": {"bus": "yes", "name": "Garibaldi - Berthelot", "network": "TCL", "public_transport": "stop_position"}}, {"type": "node", "id": 4576330316, "lat": 45.7636401, "lon": 4.8456437, "tags": {"bus": "yes", "name": "Saxe - Lafayette", "public_transport": "stop_position", "trolleybus": "yes"}}, {"type": "node", "id": 4576330317, "lat": 45.7636189, "lon": 4.8443975, "tags": {"bus": "yes", "name": "Saxe - Lafayette", "public_transport": "stop_position", "trolleybus": "yes"}}, {"type": "node", "id": 4576330318, "lat": 45.7484112, "lon": 4.8433322, "tags": {"bus": "yes", "name": "Universit\u00e9 - Jean Jaur\u00e8s", "public_transport": "stop_position"}}, {"type": "node", "id": 4576330321, "lat": 45.74896, "lon": 4.8389666, "tags": {"bus": "yes", "name": "B\u00e9chevelin", "public_transport": "stop_position"}}, {"type": "node", "id": 4576330322, "lat": 45.7500072, "lon": 4.8406442, "tags": {"bus": "yes", "name": "B\u00e9chevelin", "public_transport": "stop_position"}}, {"type": "node", "id": 4576330323, "lat": 45.7596704, "lon": 4.8410235, "tags": {"bus": "yes", "name": "Augagneur Servient", "public_transport": "stop_position"}}, {"type": "node", "id": 4576330324, "lat": 45.7726165, "lon": 4.8560551, "tags": {"bus": "yes", "name": "Parc T\u00eate d'Or - Verguin", "public_transport": "stop_position"}}, {"type": "node", "id": 4576330327, "lat": 45.7689156, "lon": 4.852462, "tags": {"bus": "yes", "name": "Mass\u00e9na", "public_transport": "stop_position"}}, {"type": "node", "id": 4576330328, "lat": 45.7509698, "lon": 4.8390355, "tags": {"bus": "yes", "name": "Rue de l'Universit\u00e9", "public_transport": "stop_position"}}, {"type": "node", "id": 4576330329, "lat": 45.7725873, "lon": 4.849869, "tags": {"bus": "yes", "name": "Garibaldi - Duquesne", "public_transport": "stop_position"}}, {"type": "node", "id": 4576330331, "lat": 45.7683325, "lon": 4.8505765, "tags": {"bus": "yes", "name": "Mairie du 6e", "public_transport": "stop_position"}}, {"type": "node", "id": 4576330340, "lat": 45.7540729, "lon": 4.8387471, "tags": {"bus": "yes", "name": "Centre Nautique Tony Bertrand", "public_transport": "stop_position"}}, {"type": "node", "id": 4576330341, "lat": 45.7639632, "lon": 4.8515004, "tags": {"bus": "yes", "name": "Halles Paul Bocuse", "public_transport": "stop_position", "trolleybus": "yes"}}, {"type": "node", "id": 4576330343, "lat": 45.7636652, "lon": 4.8508732, "tags": {"bus": "yes", "name": "Halles Paul Bocuse", "public_transport": "stop_position", "trolleybus": "yes"}}, {"type": "node", "id": 4576330345, "lat": 45.7670627, "lon": 4.8528293, "tags": {"bus": "yes", "name": "Bugeaud", "network": "TCL", "operator": "Keolis Lyon", "public_transport": "stop_position", "ref": "38"}}, {"type": "node", "id": 4576330349, "lat": 45.7455953, "lon": 4.8475434, "tags": {"bus": "yes", "name": "Lamothe - Madeleine", "network": "TCL", "public_transport": "stop_position"}},