{"version": 0.6, "generator": "Overpass API 0.7.62.8 e802775f", "osm3s": {"timestamp_osm_base": "2025-12-04T23:42:26Z", "copyright": "The data included in this document is from www.openstreetmap.org. The data is made available under ODbL."}, "elements": [{"type": "node", "id": 202822347, "lat": 48.875847, "lon": 2.3239479}, {"type": "node", "id": 252814154, "lat": 48.8242374, "lon": 2.3651653, "tags": {"brand:wikidata": "Q1005336", "changing_table": "no", "contact:city": "Paris", "contact:housenumber": "48", "contact:postcode": "75013", "contact:street": "Avenue d'Ivry", "contact:website": "https://www.tang-freres.fr/supermarche-asiatique/tang-freres-paris-13-avenue-ivry-historique/", "level": "0", "name": "Tang Fr\u00e8res", "opening_hours": "Tu-Fr 09:00-20:00; Sa 08:00-20:00; Su 08:00-13:00", "organic": "no", "origin": "asian", "shop": "supermarket", "toilets": "no", "wheelchair": "yes"}}, {"type": "node", "id": 255688248, "lat": 48.8242398, "lon": 2.2739238, "tags": {"addr:city": "Issy-les-Moulineaux", "addr:postcode": "92130", "addr:street": "Rue du G\u00e9n\u00e9ral Leclerc", "brand": "Monoprix", "brand:wikidata": "Q3321241", "brand:wikipedia": "fr:Monoprix (France)", "name": "Monoprix", "opening_hours": "Mo-Sa 08:30-22:00; Su 09:00-20:00", "operator": "Groupe Casino", "phone": "+33 1 46 44 44 13", "shop": "supermarket", "website": "https://www.monoprix.fr/841.html", "wheelchair": "yes"}}, {"type": "node", "id": 260016094, "lat": 48.8435771, "lon": 2.3052604, "tags": {"addr:city": "Paris", "addr:housenumber": "76", "addr:postcode": "75015", "addr:street": "Rue Lecourbe", "branch": "Lecourbe", "brand": "Monoprix", "brand:wikidata": "Q3321241", "brand:wikipedia": "fr:Monoprix (France)", "contact:city": "Paris", "contact:housenumber": "76", "contact:postcode": "75015", "contact:street": "Rue Lecourbe", "fax": "+33 1 47 83 84 73", "name": "Monoprix", "opening_hours": "09:00-21:45; Su 09:00-20:00", "operator": "Monoprix", "phone": "+33 1 42 73 03 30", "shop": "supermarket", "website": "https://www.monoprix.fr/48.html", "wheelchair": "yes"}}, {"type": "node", "id": 262861803, "lat": 48.8359056, "lon": 2.2906833, "tags": {"brand": "G20", "brand:wikidata": "Q3504731", "name": "G20", "opening_hours": "Mo-Sa 08:00-21:00; Su 09:00-21:00", "shop": "supermarket"}}, {"type": "node", "id": 280694858, "lat": 48.8693722, "lon": 2.3551317, "tags": {"addr:housenumber": "6", "addr:street": "Boulevard Saint-Denis", "brand": "G20", "brand:wikidata": "Q3504731", "brand:wikipedia": "fr:Supermarch\u00e9s G20", "check_date": "2025-09-22", "name": "G20", "operator": "G20", "shop": "supermarket"}}, {"type": "node", "id": 283225860, "lat": 48.8579464, "lon": 2.3012012, "tags": {"brand": "G20", "brand:wikidata": "Q3504731", "brand:wikipedia": "fr:Supermarch\u00e9s G20", "name": "G20", "operator": "G20", "shop": "supermarket"}}, {"type": "node", "id": 283347984, "lat": 48.8660881, "lon": 2.3521709, "tags": {"addr:floor": ";0", "addr:housenumber": "95", "addr:street": "Boulevard de S\u00e9bastopol", "brand": "Monoprix", "brand:wikidata": "Q3321241", "brand:wikipedia": "fr:Monoprix (France)", "check_date": "2025-08-01", "fax": "+33142219110", "level": "-1;0", "name": "Monoprix", "opening_hours": "Mo-Sa 08:00-21:45; Su 09:00-19:45", "operator": "Groupe Casino", "payment:american_express": "yes", "payment:cash": "yes", "payment:contactless": "yes", "payment:credit_cards": "yes", "payment:debit_cards": "yes", "payment:visa": "yes", "phone": "+33142333615", "shop": "supermarket", "wheelchair": "limited"}}, {"type": "node", "id": 288158041, "lat": 48.8533252, "lon": 2.4057615, "tags": {"addr:housenumber": "75", "addr:street": "Rue des Pyr\u00e9n\u00e9es", "brand": "Lidl", "brand:website": "http://www.lidl.fr", "brand:wikidata": "Q151954", "brand:wikipedia": "en:Lidl", "dog": "no", "name": "Lidl", "opening_hours": "Mo-Sa 08:30-20:00; Su off", "operator": "Lidl", "shop": "supermarket", "wheelchair": "limited"}}, {"type": "node", "id": 295494768, "lat": 48.8221145, "lon": 2.313147, "tags": {"addr:postcode": "92120", "addr:street": "Avenue Pierre Brossolette", "brand": "Monoprix", "brand:wikidata": "Q3321241", "brand:wikipedia": "fr:Monoprix (France)", "name": "Monoprix", "opening_hours": "Mo-Sa 09:00-22:00; Su 09:00-13:00", "operator": "Groupe Casino", "phone": "+33 1 46 56 38 40", "shop": "supermarket", "website": "https://www.monoprix.fr/770.html", "wheelchair": "limited"}}, {"type": "node", "id": 310054121, "lat": 48.8366804, "lon": 2.2948576, "tags": {"branch": "Convention", "brand": "Monoprix", "brand:wikidata": "Q3321241", "check_date:opening_hours": "2023-12-27", "contact:city": "Paris", "contact:fax": "+33 1 45 57 21 92", "contact:housenumber": "340", "contact:phone": "+33 1 45 54 33 63", "contact:postcode": "75015", "contact:street": "Rue de Vaugirard", "contact:website": "https://www.monoprix.fr/51.html", "name": "Monoprix", "opening_hours": "Mo-Sa 08:00-23:30; Su 08:00-20:00", "operator": "Monoprix", "shop": "supermarket", "source": "survey", "wheelchair": "yes"}}, {"type": "node", "id": 315765309, "lat": 48.8303333, "lon": 2.3286779, "tags": {"brand": "Monoprix", "brand:wikidata": "Q3321241", "brand:wikipedia": "fr:Monoprix (France)", "contact:housenumber": "52;54", "contact:street": "Avenue du G\u00e9n\u00e9ral Leclerc", "name": "Monoprix", "opening_hours": "Mo-Sa 08:00-21:00, Su 09:00-13:00", "operator": "Groupe Casino", "phone": "+33 1 45 41 26 98", "shop": "supermarket", "website": "https://www.monoprix.fr/799.html", "wheelchair": "yes"}}, {"type": "node", "id": 321259611, "lat": 48.8332905, "lon": 2.3609723, "tags": {"addr:street": "Place Pinel", "brand": "Aldi", "brand:wikidata": "Q41171373", "check_date": "2025-04-06", "level": "0", "name": "Aldi", "opening_hours": "Mo-Sa 08:00-21:00; Su 08:30-12:30", "phone": "+33 9 77 40 40 44", "shop": "supermarket", "website": "https://www.aldi.fr/magasins-et-horaires-d-ouverture.html/l/paris/7-place-pinel/3435205"}}, {"type": "node", "id": 325682977, "lat": 48.8534094, "lon": 2.3325318, "tags": {"brand": "Monoprix", "brand:wikidata": "Q3321241", "brand:wikipedia": "fr:Monoprix (France)", "check_date": "2024-07-02", "name": "Monoprix", "opening_hours": "Mo-Sa 08:00-23:40; Su 09:00-20:00", "operator": "Groupe Casino", "shop": "supermarket", "website": "https://www.monoprix.fr/816.html"}}, {"type": "node", "id": 326334714, "lat": 48.8640484, "lon": 2.3781979, "tags": {"addr:housenumber": "83", "addr:postcode": "75011", "addr:street": "Rue Saint-Maur", "brand": "Lidl", "brand:website": "http://www.lidl.fr", "brand:wikidata": "Q151954", "brand:wikipedia": "fr:Lidl", "diet:halal": "yes", "name": "Lidl", "opening_hours": "Mo-Sa 08:30-21:00", "operator": "Lidl", "shop": "supermarket"}}, {"type": "node", "id": 330494873, "lat": 48.8400818, "lon": 2.3221697, "tags": {"addr:city": "Paris", "addr:housenumber": "53/55", "addr:postcode": "75014", "addr:street": "Avenue du Maine", "brand": "Lidl", "brand:wikidata": "Q151954", "check_date": "2025-04-16", "name": "Lidl", "opening_hours": "Mo-Sa 08:00-21:00, Su 08:30-12:15", "shop": "supermarket", "start_date": "2023-01-11"}}, {"type": "node", "id": 332087204, "lat": 48.8584763, "lon": 2.3805487, "tags": {"addr:housenumber": "8", "addr:postcode": "75011", "addr:street": "Place L\u00e9on Blum", "branch": "Voltaire - Paris", "brand": "Auchan Supermarch\u00e9", "brand:wikidata": "Q105857776", "check_date": "2024-03-11", "name": "Auchan Supermarch\u00e9", "opening_hours": "Mo-Sa 08:30-21:30; Su 08:30-12:30,13:00-20:30", "phone": "+33 1 43 79 44 56", "shop": "supermarket"}}, {"type": "node", "id": 365137991, "lat": 48.8515486, "lon": 2.4016481, "tags": {"brand": "G20", "brand:wikidata": "Q3504731", "brand:wikipedia": "fr:Supermarch\u00e9s G20", "name": "G20", "opening_hours": "Mo-Sa 08:00-21:00; Su 09:00-21:00", "operator": "G20", "shop": "supermarket", "wheelchair": "yes"}}, {"type": "node", "id": 373744329, "lat": 48.8291076, "lon": 2.3235383, "tags": {"alt_name": "Monoprix Moulin Vert", "branch": "Moulin Vert PN", "brand": "Monoprix", "brand:wikidata": "Q3321241", "brand:wikipedia": "en:Monoprix;fr:Monoprix (France)", "check_date:opening_hours": "2025-12-04", "contact:city": "Paris", "contact:housenumber": "92", "contact:postcode": "75014", "contact:street": "Rue d'Al\u00e9sia", "name": "Monoprix", "opening_hours": "Mo-Sa 09:30-20:30", "operator": "Groupe Casino", "phone": "+33 1 58 14 22 90", "shop": "supermarket", "website": "https://www.monoprix.fr/1198.html", "wheelchair": "yes"}}, {"type": "node", "id": 416626727, "lat": 48.8689224, "lon": 2.3747761, "tags": {"addr:street": "Rue Saint-Maur", "brand": "Aldi", "brand:wikidata": "Q41171373", "check_date": "2025-07-10", "name": "Aldi", "opening_hours": "Mo-Sa 08:00-21:00; Su 08:00-12:30", "phone": "+33 9 77 40 40 44", "shop": "supermarket", "website": "https://www.aldi.fr/magasins-et-horaires-d-ouverture.html/l/paris/142-150-rue-saint-maur/3436367"}}, {"type": "node", "id": 416673084, "lat": 48.8764439, "lon": 2.3684913, "tags": {"branch": "Paris Grange aux belles", "brand": "Bio C' Bon", "brand:wikidata": "Q54312551", "check_date": "2024-11-06", "contact:city": "Paris", "contact:housenumber": "49", "contact:phone": "+33 1 48 74 09 80", "contact:postcode": "75010", "contact:street": "Rue de la Grange aux Belles", "contact:website": "https://bio-c-bon.eu/fr/nos_magasins/bio-c-bon-paris-grange-aux-belles", "name": "Bio C' Bon", "old_name": "Carrefour Express", "opening_hours": "Mo-Sa 09:30-20:00; Su 09:30-13:00", "organic": "only", "ref:FR:SIRET": "49930885601360", "shop": "supermarket", "wheelchair": "yes"}}, {"type": "node", "id": 416707322, "lat": 48.8705122, "lon": 2.3709103, "tags": {"brand": "G20", "brand:wikidata": "Q3504731", "brand:wikipedia": "fr:Supermarch\u00e9s G20", "check_date": "2025-08-06", "check_date:opening_hours": "2021-11-11", "name": "G20", "opening_hours": "Mo-Sa 07:30-22:00; Su 09:00-21:00", "operator": "SODIPAR", "shop": "supermarket", "wheelchair": "yes"}}, {"type": "node", "id": 416710039, "lat": 48.8701691, "lon": 2.3721452, "tags": {"brand": "Monoprix", "brand:wikidata": "Q3321241", "brand:wikipedia": "fr:Monoprix (France)", "check_date": "2024-08-19", "name": "Monoprix", "opening_hours": "Mo-Sa 08:30-21:50; Su 09:00-13:00", "operator": "Groupe Casino", "phone": "+33 1 43 57 14 80", "shop": "supermarket", "website": "https://www.monoprix.fr/883.html", "wheelchair": "yes"}}, {"type": "node", "id": 418077552, "lat": 48.86625, "lon": 2.3794293, "tags": {"addr:postcode": "75011", "addr:street": "Rue Oberkampf", "brand": "Casino", "brand:wikidata": "Q89029184", "name": "Casino", "opening_hours": "24/7", "operator": "Casino", "shop": "supermarket", "source": "survey"}}, {"type": "node", "id": 428032271, "lat": 48.8485694, "lon": 2.3787232, "tags": {"addr:city": "Paris", "addr:housenumber": "15", "addr:postcode": "75012", "addr:street": "Place d'Aligre", "check_date": "2024-11-14", "name": "Top Asia", "payment:cash": "yes", "payment:credit_cards": "yes", "payment:debit_cards": "yes", "shop": "supermarket"}}, {"type": "node", "id": 428144809, "lat": 48.8646253, "lon": 2.3555277, "tags": {"brand": "Naturalia", "brand:wikidata": "Q3337081", "brand:wikipedia": "fr:Naturalia", "check_date": "2025-08-23", "name": "Naturalia", "opening_hours": "Mo-Sa 10:00-20:45; Su 09:00-19:30", "operator": "Groupe Casino", "organic": "only", "phone": "+33 1 42 74 40 03", "shop": "supermarket", "website": "https://naturalia.fr/", "wheelchair": "yes"}}, {"type": "node", "id": 433366341, "lat": 48.8860129, "lon": 2.3833794, "tags": {"addr:housenumber": "118/130", "addr:postcode": "75019", "addr:street": "Avenue Jean Jaur\u00e8s", "brand": "Monoprix", "brand:wikidata": "Q3321241", "brand:wikipedia": "en:Monoprix", "check_date": "2025-10-24", "name": "Monoprix", "name:en": "Monoprix", "name:fr": "Monoprix", "opening_hours": "Mo-Sa 08:00-22:00; Su 09:00-20:00", "operator": "Groupe Casino", "phone": "+33 1 48 03 33 29", "ref:FR:SIRET": "55208329701315", "shop": "supermarket", "website": "https://www.monoprix.fr/794.html"}}, {"type": "node", "id": 446866185, "lat": 48.8740289, "lon": 2.3897101, "tags": {"brand": "Naturalia", "brand:wikidata": "Q3337081", "brand:wikipedia": "fr:Naturalia", "contact:phone": "+33 1 40 33 00 69", "name": "Naturalia", "opening_hours": "Mo-Sa 09:00-20:45;Su 09:00-12:45", "operator": "Groupe Casino", "organic": "only", "ref:FR:SIRET": "30247464800433", "shop": "supermarket", "website": "https://naturalia.fr/"}}, {"type": "node", "id": 448819325, "lat": 48.816795, "lon": 2.3216547, "tags": {"brand": "U Express", "brand:wikidata": "Q2529029", "brand:wikipedia": "en:Syst\u00e8me U", "check_date": "2024-04-20", "level": "0", "name": "U Express", "opening_hours": "Mo-Sa 08:00-21:00; Su 09:00-21:00", "operator": "Syst\u00e8me U", "operator:type": "private", "payment:cash": "yes", "payment:credit_cards": "yes", "payment:debit_cards": "yes", "phone": "+33 1 40 92 77 60", "shop": "supermarket", "website": "https://www.magasins-u.com/magasin/uexpress-montrouge", "wheelchair": "yes"}}, {"type": "node", "id": 450721863, "lat": 48.8363475, "lon": 2.2815351, "tags": {"addr:postcode": "75015", "brand": "Intermarch\u00e9", "brand:wikidata": "Q3153200", "name": "Intermarch\u00e9", "phone": "+33 144250400", "shop": "supermarket", "website": "https://www.intermarche.com/magasins/10681/paris-75015/infos-pratiques", "wheelchair": "limited"}}, {"type": "node", "id": 462133621, "lat": 48.8269726, "lon": 2.2775317, "tags": {"brand": "Monoprix", "brand:wikidata": "Q3321241", "brand:wikipedia": "fr:Monoprix (France)", "fax": "+33141097816", "name": "Monoprix", "old_name": "Inno", "opening_hours": "Mo-Sa 09:00-22:00; Su 09:00-13:00", "operator": "Groupe Casino", "phone": "+33141097815", "shop": "supermarket", "website": "https://www.monoprix.fr/1266.html", "wheelchair": "yes"}}, {"type": "node", "id": 463721572, "lat": 48.8820794, "lon": 2.3158563, "tags": {"branch": "Dames", "brand": "Monoprix", "brand:website": "https://www.monoprix.fr/", "brand:wikidata": "Q3321241", "brand:wikipedia": "fr:Monoprix (France)", "contact:city": "Paris", "contact:housenumber": "125", "contact:postcode": "75017", "contact:street": "Rue des Dames", "name": "Monoprix", "opening_hours": "Mo-Sa 09:00-22:00,09:00-18:00; Su 09:00-12:45", "operator": "Groupe Casino", "shop": "supermarket", "website": "https://www.monoprix.fr/341.html", "wheelchair": "yes"}}, {"type": "node", "id": 469974649, "lat": 48.8410504, "lon": 2.394404, "tags": {"addr:city": "Paris", "addr:housenumber": "121", "addr:postcode": "75012", "addr:street": "Rue de Reuilly", "branch": "Paris Reuilly", "brand": "Auchan Supermarch\u00e9", "brand:wikidata": "Q105857776", "name": "Auchan Supermarch\u00e9", "opening_hours": "Mo-Sa 08:30-21:30; Su 09:00-12:30,13:00-20:30", "operator": "Auchan", "organic": "yes", "phone": "+33 1 43 46 91 55", "ref:FR:SIRET": "41040901500527", "shop": "supermarket", "toilets:wheelchair": "yes", "website": "https://www.auchan.fr/magasins/supermarche/supermarche-paris-reuilly/s-1106", "wheelchair": "yes"}}, {"type": "node", "id": 469986301, "lat": 48.8377287, "lon": 2.4014374, "tags": {"addr:housenumber": "114", "addr:street": "Rue de Picpus", "branch": "Picpus", "brand": "Monoprix", "brand:wikidata": "Q3321241", "brand:wikipedia": "en:Monoprix", "check_date": "2025-10-04", "check_date:opening_hours": "2025-10-04", "name": "Monoprix", "opening_hours": "Mo-Sa 08:00-22:00; Su 08:00-20:00", "operator": "Groupe Casino", "phone": "+33 1 43 43 40 03", "ref:FR:SIRET": "55208329701224", "shop": "supermarket", "website": "https://www.monoprix.fr/58.html"}}, {"type": "node", "id": 480680110, "lat": 48.8299505, "lon": 2.3776687, "tags": {"brand": "Monoprix", "brand:wikidata": "Q3321241", "brand:wikipedia": "en:Monoprix", "level": "0", "name": "Monoprix", "opening_hours": "Mo-Sa 08:00-21:00, Su 09:00-20:00", "operator": "Groupe Casino", "organic": "yes", "phone": "+33 1 44 23 06 60", "shop": "supermarket", "toilets": "no", "website": "https://www.monoprix.fr/1285.html", "wheelchair": "yes"}}, {"type": "node", "id": 486592888, "lat": 48.8259414, "lon": 2.3467822, "tags": {"branch": "Paris - Tolbiac", "brand": "Auchan Supermarch\u00e9", "brand:wikidata": "Q105857776", "changing_table": "limited", "level": "0", "name": "Auchan Supermarch\u00e9", "opening_hours": "Mo-Sa 08:00-21:30; Su 08:30-12:30,13:00-20:30", "organic": "yes", "shop": "supermarket", "toilets": "no", "wheelchair": "yes"}}, {"type": "node", "id": 486592921, "lat": 48.8284354, "lon": 2.3440973, "tags": {"brand": "Monoprix", "brand:wikidata": "Q3321241", "brand:wikipedia": "fr:Monoprix (France)", "level": "0", "name": "Monoprix", "opening_hours": "Mo-Sa 09:00-23:30, Su 09:00-19:00", "operator": "Groupe Casino", "organic": "yes", "phone": "+33 1 45 80 75 90", "shop": "supermarket", "toilets": "no", "website": "https://www.monoprix.fr/465.html", "wheelchair": "yes"}}, {"type": "node", "id": 493729432, "lat": 48.8395966, "lon": 2.4017107, "tags": {"addr:housenumber": "16", "addr:postcode": "75012", "addr:street": "Rue Louis Braille", "brand": "Aldi", "brand:wikidata": "Q41171373", "check_date": "2025-10-04", "name": "Aldi", "opening_hours": "Mo-Sa 08:00-21:00; Su 08:30-12:30", "payment:cash": "yes", "payment:credit_cards": "yes", "payment:debit_cards": "yes", "phone": "+33 9 77 40 40 44", "ref:FR:SIRET": "87918973600447", "shop": "supermarket", "website": "https://www.aldi.fr/magasins-et-horaires-d-ouverture.html/l/paris/16-rue-louis-braille/3435072"}}, {"type": "node", "id": 494658036, "lat": 48.8313155, "lon": 2.3153662, "tags": {"branch": "Paris Al\u00e9sia", "brand": "Auchan Supermarch\u00e9", "brand:wikidata": "Q105857776", "check_date:opening_hours": "2024-06-01", "name": "Auchan Supermarch\u00e9", "opening_hours": "Mo-Sa 08:00-21:30; Su 09:00-12:30,13:00-20:30", "shop": "supermarket", "wheelchair": "yes"}}, {"type": "node", "id": 496114762, "lat": 48.8646989, "lon": 2.3689158, "tags": {"branch": "Crussol", "brand": "Naturalia", "brand:wikidata": "Q3337081", "brand:wikipedia": "fr:Naturalia", "check_date": "2025-08-03", "email": "crussol@naturalia.fr", "name": "Naturalia", "opening_hours": "Mo-Sa 09:00-20:45; Su 09:00-12:45", "operator": "Naturalia", "organic": "only", "phone": "+33 1 78 91 03 54", "shop": "supermarket", "website": "https://magasins.naturalia.fr/naturalia/fr/store/france/ile-de-france/paris/paris/crussol/3919"}}, {"type": "node", "id": 500255554, "lat": 48.8386288, "lon": 2.3898798, "tags": {"brand": "Monoprix", "brand:wikidata": "Q3321241", "brand:wikipedia": "fr:Monoprix (France)", "check_date": "2025-10-13", "name": "Monoprix", "opening_hours": "Mo-Sa 09:00-22:00; Su 09:00-12:45", "operator": "Groupe Casino", "phone": "+33 1 43 07 57 60", "ref:FR:SIRET": "55208329701513", "shop": "supermarket", "source": "survey", "website": "https://www.monoprix.fr/848.html"}}, {"type": "node", "id": 503047787, "lat": 48.8217647, "lon": 2.3679348}, {"type": "node", "id": 503047790, "lat": 48.8220413, "lon": 2.3677892}, {"type": "node", "id": 508588036, "lat": 48.846186, "lon": 2.3882212, "tags": {"brand": "Monoprix", "brand:wikidata": "Q3321241", "brand:wikipedia": "en:Monoprix", "check_date": "2025-11-21", "check_date:opening_hours": "2025-11-21", "name": "Monoprix", "opening_hours": "Mo-Sa 08:00-20:45; Su 09:00-19:45", "operator": "Groupe Casino", "phone": "+33 1 53 44 76 00", "ref:FR:SIRET": "55208329703139", "shop": "supermarket", "website": "https://www.monoprix.fr/1890.html"}}, {"type": "node", "id": 533755692, "lat": 48.8234104, "lon": 2.3660411, "tags": {"brand": "Paris Store", "name": "Paris Store", "opening_hours": "Tu-Th 08:45-19:00; Fr 08:45-19:10; Sa 08:30-19:10; Su 08:30-12:30", "origin": "asian", "shop": "supermarket", "website": "https://paris-store.com/magasins/", "wheelchair": "yes"}}, {"type": "node", "id": 546475287, "lat": 48.8744523, "lon": 2.3285538, "tags": {"brand": "Monoprix", "brand:wikidata": "Q3321241", "brand:wikipedia": "en:Monoprix", "check_date": "2025-03-04", "drink:club-mate": "bottled", "layer": "-1", "level": "-1", "name": "Monoprix", "opening_hours": "Mo-Sa 08:00-22:00; Su 10:00-20:00", "operator": "Groupe Casino", "payment:cash": "yes", "payment:coins": "yes", "payment:credit_cards": "yes", "phone": "+33 1 44 53 79 79", "shop": "supermarket", "website": "https://www.monoprix.fr/7.html", "wheelchair": "yes"}}, {"type": "node", "id": 583211403, "lat": 48.8471183, "lon": 2.3177609, "tags": {"brand": "G20", "brand:wikidata": "Q3504731", "name": "G20", "operator": "G20", "shop": "supermarket", "wheelchair": "yes"}}, {"type": "node", "id": 596076650, "lat": 48.8893922, "lon": 2.3195945, "tags": {"brand": "G20", "brand:wikidata": "Q3504731", "brand:wikipedia": "fr:Supermarch\u00e9s G20", "check_date": "2024-04-17", "indoor": "yes", "level": "0", "name": "G20", "operator": "G20", "shop": "supermarket"}}, {"type": "node", "id": 597271657, "lat": 48.8893257, "lon": 2.3220647, "tags": {"brand": "Super U", "brand:wikidata": "Q2529029", "brand:wikipedia": "fr:Syst\u00e8me U", "check_date": "2024-04-29", "contact:website": "https://www.magasins-u.com/magasin/superu-parisavenuedeclichy", "name": "Super U", "opening_hours": "Mo-Sa 09:00-20:50; Su 09:00-19:50", "operator": "Super U", "phone": "+33 1 42 28 61 22", "shop": "supermarket"}}, {"type": "node", "id": 599956161, "lat": 48.8935528, "lon": 2.3274406, "tags": {"brand": "monop'", "brand:wikidata": "Q3321241", "brand:wikipedia": "fr:Monoprix (France)", "name": "monop'", "opening_hours": "08:00-22:00; Su off", "operator": "Monoprix", "phone": "+33 1 42 29 92 71", "shop": "supermarket", "website": "https://www.monoprix.fr/1820.html", "wheelchair": "yes"}}, {"type": "node", "id": 605173628, "lat": 48.8816958, "lon": 2.2713245, "tags": {"brand": "Monoprix", "brand:wikidata": "Q3321241", "brand:wikipedia": "fr:Monoprix (France)", "name": "Monoprix", "opening_hours": "Mo-Sa 08:00-21:45; Su 08:00-19:45", "operator": "Groupe Casino", "shop": "supermarket", "source": "survey", "website": "https://www.monoprix.fr/751.html", "wheelchair": "limited"}}, {"type": "node", "id": 614445767, "lat": 48.8270785, "lon": 2.3688229, "tags": {"brand": "Naturalia", "brand:wikidata": "Q3337081", "brand:wikipedia": "fr:Naturalia", "bulk_purchase": "yes", "changing_table": "no", "level": "0", "name": "Naturalia", "opening_hours": "Mo-Sa 09:00-20:45, Su 09:00-19:30", "operator": "Groupe Casino", "organic": "only", "phone": "+33 1 58 89 01 84", "shop": "supermarket", "toilets": "no", "website": "https://naturalia.fr/", "wheelchair": "limited"}}, {"type": "node", "id": 617047053, "lat": 48.8333174, "lon": 2.3646475, "tags": {"brand": "Monoprix", "brand:wikidata": "Q3321241", "brand:wikipedia": "fr:Monoprix (France)", "name": "Monoprix", "opening_hours": "Mo-Sa 08:00-21:00; Su 08:00-20:00", "operator": "Groupe Casino", "phone": "+33 1 44 23 23 40", "shop": "supermarket", "website": "https://www.monoprix.fr/1888.html", "wheelchair": "yes"}}, {"type": "node", "id": 621110154, "lat": 48.8210241, "lon": 2.3033306, "tags": {"addr:city": "Malakoff", "addr:housenumber": "10", "addr:postcode": "92240", "addr:street": "Rue Salvador Allende", "brand": "Intermarch\u00e9", "brand:wikidata": "Q3153200", "brand:wikipedia": "fr:Intermarch\u00e9", "check_date:opening_hours": "2022-10-31", "name": "Intermarch\u00e9", "opening_hours": "Mo-Sa 08:30-21:00; Su 08:30-20:00", "operator": "Groupement des Mousquetaires", "payment:cash": "yes", "payment:contactless": "yes", "payment:debit_cards": "yes", "payment:mastercard": "yes", "payment:visa": "yes", "phone": "+33 1 78 16 50 00", "shop": "supermarket", "source": "survey", "wheelchair": "yes"}}, {"type": "node", "id": 627857438, "lat": 48.8855549, "lon": 2.3755636, "tags": {"addr:city": "Paris", "addr:housenumber": "46bis", "addr:postcode": "75019", "addr:street": "Quai de la Loire", "branch": "Canal Bio", "brand": "Biocoop", "brand:wikidata": "Q2904039", "bulk_purchase": "yes", "check_date": "2024-11-07", "email": "info@canal-bio.fr", "name": "Biocoop Canal Bio", "opening_hours": "Mo 12:00-20:00; Tu-Sa 10:00-20:00; Su off", "organic": "only", "payment:cash": "yes", "payment:credit_cards": "yes", "payment:debit_cards": "yes", "phone": "+33 1 42 06 44 44", "shop": "supermarket", "website": "https://www.biocoop-canalbio.fr/", "wheelchair": "yes"}}, {"type": "node", "id": 629382803, "lat": 48.8370128, "lon": 2.2967236, "tags": {"brand": "Biocoop", "brand:wikidata": "Q2904039", "brand:wikipedia": "fr:Biocoop", "contact:city": "Paris", "contact:housenumber": "202", "contact:phone": "+33 1 44 93 05 89", "contact:postcode": "75015", "contact:street": "Rue de la convention", "contact:website": "https://convention.biocoop.net", "name": "Biocoop", "official_name": "Biocoop Convention", "opening_hours": "Mo-Sa 09:30-20:00; Su 09:30-12:45", "organic": "only", "ref:FR:SIRET": "84841936200019", "shop": "supermarket", "source": "survey"}}, {"type": "node", "id": 637464371, "lat": 48.9038909, "lon": 2.3314231, "tags": {"brand": "Lidl", "brand:website": "http://www.lidl.fr", "brand:wikidata": "Q151954", "brand:wikipedia": "fr:Lidl", "name": "Lidl", "operator": "Lidl", "shop": "supermarket"}}, {"type": "node", "id": 637464376, "lat": 48.9041025, "lon": 2.3314982, "tags": {"brand": "Naturalia", "brand:wikidata": "Q3337081", "brand:wikipedia": "fr:Naturalia", "cuisine": "chinese", "email": "saintouenperi@naturalia.fr", "name": "Naturalia", "opening_hours": "Mo-Sa 09:30-20:00; Su 09:00-12:45", "phone": "+33 1 40 11 45 25", "shop": "supermarket", "website": "https://magasins.naturalia.fr/naturalia/fr/store/france/ile-de-france/seine-saint-denis/st-ouen/saint-ouen-peri/3997"}}, {"type": "node", "id": 637464387, "lat": 48.9059002, "lon": 2.3315466, "tags": {"brand": "Monoprix", "brand:wikidata": "Q3321241", "brand:wikipedia": "en:Monoprix", "name": "Monoprix", "opening_hours": "Mo-Sa 08:00-22:00; Su 09:00-19:45", "operator": "Groupe Casino", "phone": "+33 1 40 12 12 70", "shop": "supermarket", "website": "https://www.monoprix.fr/37.html"}}, {"type": "node", "id": 653880473, "lat": 48.8447404, "lon": 2.3092568, "tags": {"contact:city": "Paris", "contact:housenumber": "24", "contact:postcode": "75015", "contact:street": "Rue Lecourbe", "dog": "no", "name": "mon-march\u00e9.fr", "opening_hours": "Mo-Sa 08:30-22:00, Su 08:30-12:30", "shop": "supermarket", "website": "https://www.mon-marche.fr"}}, {"type": "node", "id": 667342363, "lat": 48.873871, "lon": 2.3754889, "tags": {"check_date": "2025-06-22", "diet:halal": "no", "diet:kosher": "no", "name": "Wing Seng", "opening_hours:signed": "no", "ref:FR:SIRET": "32818666300014", "shop": "supermarket", "wheelchair": "yes"}}, {"type": "node", "id": 667342372, "lat": 48.8722964, "lon": 2.376306, "tags": {"addr:city": "Paris", "addr:housenumber": "3", "addr:postcode": "75010", "addr:street": "Boulevard de la Villette", "brand": "Paris Store", "check_date": "2025-06-22", "check_date:opening_hours": "2024-11-16", "name": "Paris Store", "opening_hours": "Mo-Sa 09:00-19:40; Su 08:45-13:00", "origin": "asian", "phone": "+33 1 42 08 62 54", "shop": "supermarket", "website": "https://www.paris-store.com", "wheelchair": "yes"}}, {"type": "node", "id": 667342374, "lat": 48.8727703, "lon": 2.3788139, "tags": {"addr:housenumber": "19", "addr:postcode": "75019", "addr:street": "Rue de Belleville", "check_date:opening_hours": "2024-08-21", "name": "Les halles de l'Asie - \u65b0\u4eca\u65e5\u8d85\u5e02", "name:zh": "\u65b0\u4eca\u65e5\u8d85\u5e02", "opening_hours": "Mo 10:00-20:00; Tu-Su 08:30-20:00", "phone": "+33142381898", "shop": "supermarket", "type": "chinese", "wheelchair": "yes"}}, {"type": "node", "id": 671472208, "lat": 48.8849482, "lon": 2.4002754, "tags": {"addr:postcode": "93310", "addr:street": "Rue Delteral", "brand": "Monoprix", "brand:wikidata": "Q3321241", "brand:wikipedia": "fr:Monoprix (France)", "name": "Monoprix", "name:en": "Monoprix Pr\u00e9 Saint Gervais", "name:fr": "Monoprix Pr\u00e9 Saint Gervais", "opening_hours": "Mo-Sa 08:30-21:30; Su 09:00-13:00", "operator": "Groupe Casino", "phone": "+33 1 41 83 76 00", "shop": "supermarket", "website": "https://www.monoprix.fr/1400.html"}}, {"type": "node", "id": 681244410, "lat": 48.8523709, "lon": 2.2902718, "tags": {"brand": "Auchan", "brand:wikidata": "Q758603", "name": "Carrefour City", "opening_hours": "Mo-Sa 07:00-22:00; Su 07:00-22:00", "shop": "supermarket", "source": "survey", "wheelchair": "yes"}}, {"type": "node", "id": 682364953, "lat": 48.8663061, "lon": 2.3318256, "tags": {"brand": "Auchan", "brand:wikidata": "Q758603", "name": "My Auchan", "opening_hours": "Mo-Sa 08:00-21:00; Su 09:00-20:00", "operator": "Auchan", "ref:FR:SIRET": "82193739800021", "shop": "supermarket", "source": "cadastre-dgi-fr source : Direction G\u00e9n\u00e9rale des Imp\u00f4ts - Cadastre. Mise \u00e0 jour : 2010", "wheelchair": "yes"}}, {"type": "node", "id": 713468456, "lat": 48.8636789, "lon": 2.3624283}, {"type": "node", "id": 713468577, "lat": 48.8637286, "lon": 2.3624317}, {"type": "node", "id": 713468670, "lat": 48.8636796, "lon": 2.3625893}, {"type": "node", "id": 713468701, "lat": 48.8636824, "lon": 2.3624244}, {"type": "node", "id": 713468798, "lat": 48.8637159, "lon": 2.3624569}, {"type": "node", "id": 713468945, "lat": 48.8636395, "lon": 2.3625443, "tags": {"addr:housenumber": "17", "source": "cadastre-dgi-fr source : Direction G\u00e9n\u00e9rale des Imp\u00f4ts - Cadastre. Mise \u00e0 jour : 2010"}}, {"type": "node", "id": 713468971, "lat": 48.8637072, "lon": 2.3623689}, {"type": "node", "id": 713469005, "lat": 48.8637412, "lon": 2.3624593}, {"type": "node", "id": 713469090, "lat": 48.8637114, "lon": 2.3624719}, {"type": "node", "id": 713469190, "lat": 48.8636932, "lon": 2.3623397}, {"type": "node", "id": 713469321, "lat": 48.8636765, "lon": 2.3624294}, {"type": "node", "id": 713469462, "lat": 48.8636103, "lon": 2.3625115}, {"type": "node", "id": 713469524, "lat": 48.8637436, "lon": 2.3624647}, {"type": "node", "id": 713882555, "lat": 48.8629397, "lon": 2.3621533, "tags": {"amenity": "cafe", "name": "Jouannault - Cheese Shop", "name:en": "Jouannault - cheese shop", "name:fr": "Jouannault - Cheese Shop", "shop": "supermarket", "source": "cadastre-dgi-fr source : Direction G\u00e9n\u00e9rale des Imp\u00f4ts - Cadastre. Mise \u00e0 jour : 2010"}}, {"type": "node", "id": 715165595, "lat": 48.8783342, "lon": 2.3857466, "tags": {"branch": "Buttes Chaumont - Paris", "brand": "Auchan Supermarch\u00e9", "brand:wikidata": "Q105857776", "check_date": "2025-03-30", "name": "Auchan Supermarch\u00e9", "opening_hours": "Mo-Sa 08:30-21:00; Su 08:30-12:30", "operator": "Auchan supermarch\u00e9", "shop": "supermarket", "wheelchair": "yes"}}, {"type": "node", "id": 721107315, "lat": 48.8467549, "lon": 2.3419742, "tags": {"addr:city": "Paris", "addr:housenumber": "1", "addr:postcode": "75005", "addr:street": "Rue Le Goff", "bulk_purchase": "limited", "check_date:opening_hours": "2025-03-03", "delivery": "yes", "internet_access": "no", "level": "0", "name": "Le Retour \u00e0 la Terre Rive Gauche", "note": "Double adresse : 12, rue Malebranche", "opening_hours": "Mo-Sa 10:00-20:00", "operator": "BIO LE GOFF", "organic": "only", "payment:credit_cards": "yes", "payment:debit_cards": "yes", "phone": "+33 1 56 81 10 37", "shop": "supermarket", "source": "www.biocoop.fr", "toilets": "no", "website": "https://www.leretouralaterre.fr/magasins/rive-gauche", "wheelchair": "yes"}}, {"type": "node", "id": 726404372, "lat": 48.8621132, "lon": 2.3848859, "tags": {"brand": "Lidl", "brand:website": "http://www.lidl.fr", "brand:wikidata": "Q151954", "brand:wikipedia": "en:Lidl", "check_date": "2023-08-27", "dog": "no", "name": "Lidl", "opening_hours": "Mo-Sa 9:00-20:00", "operator": "Lidl", "shop": "supermarket"}}, {"type": "node", "id": 735171983, "lat": 48.8808303, "lon": 2.3650793, "tags": {"brand": "Biocoop", "brand:wikidata": "Q2904039", "brand:wikipedia": "fr:Biocoop", "bulk_purchase": "yes", "check_date": "2025-04-08", "contact:city": "Paris", "contact:housenumber": "230", "contact:phone": "+33 1 40 18 00 82", "contact:postcode": "75010", "contact:street": "Rue du Faubourg Saint-Martin", "contact:website": "https://www.biocoop.fr/ile-de-france/paris/PARIS-10E-ARRONDISSEMENT/BIOCOOP-LE-PETIT-CANAL", "email": "contact@lepetitcanal.fr", "name": "Biocoop", "official_name": "Biocoop Le Petit Canal", "old_name": "CIC", "opening_hours": "Mo 16:00-20:00; Tu-Sa 10:00-20:00; Su 10:00-13:00", "organic": "only", "ref:FR:SIRET": "87906111700013", "shop": "supermarket", "wheelchair": "yes"}}, {"type": "node", "id": 735356172, "lat": 48.8799269, "lon": 2.3724859, "tags": {"brand": "Hypercacher", "brand:wikidata": "Q18746214", "brand:wikipedia": "fr:Hyper Cacher", "check_date": "2024-12-19", "diet:kosher": "only", "name": "Hypercacher", "shop": "supermarket"}}, {"type": "node", "id": 765940545, "lat": 48.8325723, "lon": 2.312782, "tags": {"brand": "Franprix", "brand:wikidata": "Q2420096", "brand:wikipedia": "fr:Franprix", "name": "Franprix", "opening_hours": "Mo-Sa 08:30-20:00; Su 08:30-13:00", "operator": "Groupe Casino", "shop": "supermarket", "source": "survey"}}, {"type": "node", "id": 773240538, "lat": 48.8621754, "lon": 2.4002743, "tags": {"brand": "Naturalia", "brand:wikidata": "Q3337081", "brand:wikipedia": "fr:Naturalia", "check_date": "2024-04-13", "name": "Naturalia", "opening_hours": "Mo-Sa 09:00-20:45; Su 09:00-12:45", "operator": "Groupe Casino", "organic": "only", "phone": "+33 1 43 66 34 77", "shop": "supermarket", "website": "https://naturalia.fr/", "wheelchair": "yes"}}, {"type": "node", "id": 784562690, "lat": 48.8749726, "lon": 2.3887397}, {"type": "node", "id": 784567486, "lat": 48.8752284, "lon": 2.3887829}, {"type": "node", "id": 784568338, "lat": 48.8750916, "lon": 2.388507}, {"type": "node", "id": 784569153, "lat": 48.8752829, "lon": 2.3887642}, {"type": "node", "id": 784581193, "lat": 48.8753486, "lon": 2.3888727}, {"type": "node", "id": 784595533, "lat": 48.8753284, "lon": 2.38888}, {"type": "node", "id": 784596059, "lat": 48.8750407, "lon": 2.3881238}, {"type": "node", "id": 784598639, "lat": 48.8750981, "lon": 2.3881068}, {"type": "node", "id": 784603066, "lat": 48.8750496, "lon": 2.3883137}, {"type": "node", "id": 784607811, "lat": 48.8753288, "lon": 2.3888834}, {"type": "node", "id": 784610876, "lat": 48.8753106, "lon": 2.3888876}, {"type": "node", "id": 784621740, "lat": 48.875281, "lon": 2.3880782}, {"type": "node", "id": 784624076, "lat": 48.8751545, "lon": 2.3887439}, {"type": "node", "id": 784626029, "lat": 48.8748732, "lon": 2.3885444}, {"type": "node", "id": 784647879, "lat": 48.8750345, "lon": 2.3882378}, {"type": "node", "id": 784667123, "lat": 48.8750121, "lon": 2.3881315}, {"type": "node", "id": 784674376, "lat": 48.8752936, "lon": 2.3888399}, {"type": "node", "id": 784674556, "lat": 48.8750049, "lon": 2.3885228}, {"type": "node", "id": 784676146, "lat": 48.8751932, "lon": 2.3887287}, {"type": "node", "id": 784686881, "lat": 48.8751405, "lon": 2.3886679}, {"type": "node", "id": 784686886, "lat": 48.8753007, "lon": 2.3888905}, {"type": "node", "id": 784692412, "lat": 48.8752159, "lon": 2.3887198}, {"type": "node", "id": 784701666, "lat": 48.874947, "lon": 2.3887505}, {"type": "node", "id": 787319708, "lat": 48.8570026, "lon": 2.3799005}, {"type": "node", "id": 787330805, "lat": 48.8569118, "lon": 2.3795522}, {"type": "node", "id": 787348050, "lat": 48.8566744, "lon": 2.379415}, {"type": "node", "id": 787350369, "lat": 48.8569746, "lon": 2.3797929}, {"type": "node", "id": 787359402, "lat": 48.856618, "lon": 2.3796452}, {"type": "node", "id": 787367058, "lat": 48.8569677, "lon": 2.3798113}, {"type": "node", "id": 787370355, "lat": 48.8569901, "lon": 2.3798532}, {"type": "node", "id": 787372583, "lat": 48.8569641, "lon": 2.3797986}, {"type": "node", "id": 787375795, "lat": 48.8569824, "lon": 2.3798575}, {"type": "node", "id": 787392872, "lat": 48.8567295, "lon": 2.380081}, {"type": "node", "id": 787407904, "lat": 48.8569697, "lon": 2.3798101}, {"type": "node", "id": 790027756, "lat": 48.8758732, "lon": 2.3241047}, {"type": "node", "id": 790027831, "lat": 48.8758662, "lon": 2.3241069}, {"type": "node", "id": 793843629, "lat": 48.8927204, "lon": 2.2772293}, {"type": "node", "id": 793847032, "lat": 48.8929299, "lon": 2.2770381}, {"type": "node", "id": 793847732, "lat": 48.8929277, "lon": 2.2770324}, {"type": "node", "id": 793856653, "lat": 48.8932194, "lon": 2.2776605}, {"type": "node", "id": 797963565, "lat": 48.9021704, "lon": 2.3172796, "tags": {"addr:street": "Rue de Belfort", "brand": "Aldi", "brand:wikidata": "Q41171373", "brand:wikipedia": "en:Aldi", "check_date": "2025-07-11", "name": "Aldi", "opening_hours": "Mo-Sa 08:30-21:00; Su 08:30-12:30", "operator": "Aldi", "phone": "+33 9 77 40 40 44", "shop": "supermarket", "website": "https://www.aldi.fr/magasins-et-horaires-d-ouverture.html/l/clichy/6-rue-de-belfort/3435063"}}, {"type": "node", "id": 806037304, "lat": 48.8429406, "lon": 2.3381647, "tags": {"addr:housenumber": "78", "addr:postcode": "75006", "addr:street": "Boulevard Saint-Michel", "brand": "Naturalia", "brand:wikidata": "Q3337081", "bulk_purchase": "yes", "email": "assas@naturalia.fr", "name": "Naturalia", "opening_hours": "Mo-Sa 09:00-20:45, Su 09:00-12:45", "organic": "only", "phone": "+33 1 56 81 68 10", "ref:FR:SIRET": "30247464802504", "ref:vatin": "FR14302474648", "shop": "supermarket", "website": "https://magasins.naturalia.fr/naturalia/fr/store/france/ile-de-france/paris/paris/saintmichel-assas/4081", "wheelchair": "yes"}}, {"type": "node", "id": 814805814, "lat": 48.8743843, "lon": 2.3197499, "tags": {"addr:city": "Paris", "addr:housenumber": "26", "addr:postcode": "75008", "addr:street": "Rue d'Astorg", "air_conditioning": "yes", "branch": "Saint-Augustin", "brand": "Monoprix", "brand:wikidata": "Q3321241", "brand:wikipedia": "en:Monoprix", "check_date": "2024-09-15", "fax": "+33 1 40 98 00 39", "name": "Monoprix", "opening_hours": "Mo-Sa 08:00-20:45; Su 09:00-19:45", "operator": "Groupe Casino", "payment:cash": "yes", "payment:contactless": "yes", "payment:credit_cards": "yes", "payment:debit_cards": "yes", "payment:google_pay": "yes", "phone": "+33 1 40 98 00 30", "shop": "supermarket", "source": "survey", "website": "https://www.monoprix.fr/42.html"}}, {"type": "node", "id": 822951255, "lat": 48.8772158, "lon": 2.3147005, "tags": {"brand": "G20", "brand:wikidata": "Q3504731", "brand:wikipedia": "fr:Supermarch\u00e9s G20", "name": "G20", "opening_hours": "Mo-Sa 08:00-20:30; Su 08:30-20:30", "operator": "G20", "shop": "supermarket", "source": "cadastre-dgi-fr source : Direction G\u00e9n\u00e9rale des Imp\u00f4ts - Cadastre. Mise \u00e0 jour : 2010"}}, {"type": "node", "id": 826357350, "lat": 48.8229679, "lon": 2.3277283, "tags": {"addr:housenumber": "90", "addr:postcode": "75014", "addr:street": "Boulevard Jourdan", "brand": "Lidl", "brand:website": "http://www.lidl.fr", "brand:wikidata": "Q151954", "brand:wikipedia": "fr:Lidl", "contact:housenumber": "90", "contact:postcode": "75014", "contact:street": "Boulevard Jourdan", "dog": "no", "name": "Lidl", "opening_hours": "Mo-Sa 08:00-21:00; Su 08:30-12:15", "operator": "Lidl", "shop": "supermarket", "source": "cadastre-dgi-fr source : Direction G\u00e9n\u00e9rale des Imp\u00f4ts - Cadastre. Mise \u00e0 jour : 2010", "website": "https://www.lidl.fr/s/fr-FR/supermarch%C3%A9s/paris/89-94-boulevard-jourdan/", "wheelchair": "yes"}}, {"type": "node", "id": 828785017, "lat": 48.8707106, "lon": 2.3061618, "tags": {"brand": "Monoprix", "brand:wikidata": "Q3321241", "brand:wikipedia": "en:Monoprix", "contact:fax": "+33 1 53 77 65 69", "contact:housenumber": "52", "contact:phone": "+33 1 53 77 65 65", "contact:street": "Avenue des Champs-\u00c9lys\u00e9es", "name": "Monoprix", "opening_hours": "Mo-Sa 09:00-00:00; Su 10:00-22:00", "operator": "Groupe Casino", "shop": "supermarket", "website": "https://www.monoprix.fr/39.html", "wheelchair": "yes"}}, {"type": "node", "id": 829051438, "lat": 48.8708827, "lon": 2.3072093}, {"type": "node", "id": 829051450, "lat": 48.8709895, "lon": 2.3068634}, {"type": "node", "id": 829051505, "lat": 48.8708704, "lon": 2.3069782}, {"type": "node", "id": 829051650, "lat": 48.8708938, "lon": 2.3069551}, {"type": "node", "id": 829051696, "lat": 48.8711884, "lon": 2.3069092}, {"type": "node", "id": 829051704, "lat": 48.8709723, "lon": 2.30688}, {"type": "node", "id": 829051718, "lat": 48.8710788, "lon": 2.3067774}, {"type": "node", "id": 829051736, "lat": 48.8708102, "lon": 2.3070362}, {"type": "node", "id": 829051758, "lat": 48.8711165, "lon": 2.3067401}, {"type": "node", "id": 829051904, "lat": 48.8708092, "lon": 2.3070369}, {"type": "node", "id": 836331606, "lat": 48.8715883, "lon": 2.3988999}, {"type": "node", "id": 836333932, "lat": 48.8716088, "lon": 2.3987531}, {"type": "node", "id": 836335500, "lat": 48.8717835, "lon": 2.3988001}, {"type": "node", "id": 836336205, "lat": 48.8717474, "lon": 2.3986812}, {"type": "node", "id": 836337493, "lat": 48.8716077, "lon": 2.3989621}, {"type": "node", "id": 836337711, "lat": 48.8716969, "lon": 2.399049}, {"type": "node", "id": 836338068, "lat": 48.871616, "lon": 2.3989549}, {"type": "node", "id": 836338106, "lat": 48.8715665, "lon": 2.3987944}, {"type": "node", "id": 836339094, "lat": 48.8717371, "lon": 2.3986474}, {"type": "node", "id": 836342056, "lat": 48.8717002, "lon": 2.3990659}, {"type": "node", "id": 836345981, "lat": 48.8715924, "lon": 2.3986995}, {"type": "node", "id": 836346151, "lat": 48.8716935, "lon": 2.3990496}, {"type": "node", "id": 836347182, "lat": 48.8717362, "lon": 2.3986524}, {"type": "node", "id": 836348162, "lat": 48.8715655, "lon": 2.3987926}, {"type": "node", "id": 836349512, "lat": 48.871696, "lon": 2.3990443}, {"type": "node", "id": 836354035, "lat": 48.871804, "lon": 2.3991044}, {"type": "node", "id": 836354866, "lat": 48.8716075, "lon": 2.3987534}, {"type": "node", "id": 836356436, "lat": 48.8716602, "lon": 2.3989178}, {"type": "node", "id": 836356715, "lat": 48.8718638, "lon": 2.3990648}, {"type": "node", "id": 836359373, "lat": 48.8717316, "lon": 2.3986564}, {"type": "node", "id": 836360596, "lat": 48.8717906, "lon": 2.3990588}, {"type": "node", "id": 836362175, "lat": 48.8717079, "lon": 2.3990366}, {"type": "node", "id": 836362806, "lat": 48.8716145, "lon": 2.3989518}, {"type": "node", "id": 836362901, "lat": 48.87156, "lon": 2.398796}, {"type": "node", "id": 836368825, "lat": 48.8716942, "lon": 2.3990631}, {"type": "node", "id": 836373329, "lat": 48.8716983, "lon": 2.399062}, {"type": "node", "id": 836375453, "lat": 48.8717098, "lon": 2.3985984}, {"type": "node", "id": 836376825, "lat": 48.8716555, "lon": 2.3989205}, {"type": "node", "id": 836381904, "lat": 48.8717297, "lon": 2.3991011}, {"type": "node", "id": 836382108, "lat": 48.8717092, "lon": 2.3991154}, {"type": "node", "id": 836382359, "lat": 48.8717349, "lon": 2.3986487}, {"type": "node", "id": 836389584, "lat": 48.8717135, "lon": 2.3990569}, {"type": "node", "id": 836389825, "lat": 48.8716774, "lon": 2.3989683}, {"type": "node", "id": 836400744, "lat": 48.8716723, "lon": 2.3989746}, {"type": "node", "id": 836411514, "lat": 48.8716086, "lon": 2.3987594}, {"type": "node", "id": 836414112, "lat": 48.8716534, "lon": 2.3989176}, {"type": "node", "id": 837766955, "lat": 48.852345, "lon": 2.4008526}, {"type": "node", "id": 837776628, "lat": 48.852327, "lon": 2.4007766}, {"type": "node", "id": 837779162, "lat": 48.8520335, "lon": 2.4009532}, {"type": "node", "id": 837780161, "lat": 48.8520161, "lon": 2.4012011}, {"type": "node", "id": 837780945, "lat": 48.8519533, "lon": 2.4010058}, {"type": "node", "id": 837782491, "lat": 48.851878, "lon": 2.4010472}, {"type": "node", "id": 837795818, "lat": 48.8521142, "lon": 2.4009073}, {"type": "node", "id": 837796873, "lat": 48.8519023, "lon": 2.4011821}, {"type": "node", "id": 837800155, "lat": 48.8521798, "lon": 2.4008671}, {"type": "node", "id": 837803819, "lat": 48.8520027, "lon": 2.4011441}, {"type": "node", "id": 837807528, "lat": 48.852133, "lon": 2.4008958}, {"type": "node", "id": 837808457, "lat": 48.8521221, "lon": 2.4009025}, {"type": "node", "id": 837817859, "lat": 48.8519882, "lon": 2.4009774}, {"type": "node", "id": 837825483, "lat": 48.8523763, "lon": 2.4010041}, {"type": "node", "id": 837834687, "lat": 48.8519515, "lon": 2.4009969}, {"type": "node", "id": 840927416, "lat": 48.8711514, "lon": 2.3068221, "tags": {"addr:housenumber": "107", "source": "cadastre-dgi-fr source : Direction G\u00e9n\u00e9rale des Imp\u00f4ts - Cadastre. Mise \u00e0 jour : 2010"}}, {"type": "node", "id": 864856974, "lat": 48.8417832, "lon": 2.3170834, "tags": {"brand": "Casino", "brand:wikidata": "Q89029184", "name": "Casino", "opening_hours": "Mo-Sa 08:30-21:00", "operator": "Casino", "shop": "supermarket"}}, {"type": "node", "id": 865211216, "lat": 48.8636746, "lon": 2.3463358, "tags": {"addr:city": "Paris", "addr:floor": "0", "addr:housenumber": "11/13", "addr:postcode": "75001", "addr:street": "Rue Montorgueil", "brand": "Naturalia", "brand:wikidata": "Q3337081", "brand:wikipedia": "fr:Naturalia", "check_date": "2025-08-01", "check_date:opening_hours": "2025-05-14", "contact:phone": "+33 1 55 80 77 81", "contact:website": "https://naturalia.fr/", "level": "0", "name": "Naturalia", "opening_hours": "Mo-Sa 09:00-20:45; Su 09:00-19:30", "operator": "Groupe Casino", "organic": "only", "ref:FR:SIRET": "30247464800201", "shop": "supermarket", "wheelchair": "yes"}}, {"type": "node", "id": 880185248, "lat": 48.9000189, "lon": 2.305519}, {"type": "node", "id": 880187632, "lat": 48.9051497, "lon": 2.3200315}, {"type": "node", "id": 880192847, "lat": 48.9045054, "lon": 2.3192353}, {"type": "node", "id": 880195921, "lat": 48.9024031, "lon": 2.3026337}, {"type": "node", "id": 880199097, "lat": 48.9039459, "lon": 2.3204141}, {"type": "node", "id": 880210963, "lat": 48.9000777, "lon": 2.305642}, {"type": "node", "id": 880211223, "lat": 48.9040247, "lon": 2.3200034}, {"type": "node", "id": 880211603, "lat": 48.9046777, "lon": 2.3192019}, {"type": "node", "id": 880223711, "lat": 48.9042429, "lon": 2.3203062}, {"type": "node", "id": 880225965, "lat": 48.9039658, "lon": 2.3204713}, {"type": "node", "id": 880226112, "lat": 48.9039208, "lon": 2.3198542}, {"type": "node", "id": 880226183, "lat": 48.9024843, "lon": 2.3029452}, {"type": "node", "id": 880226364, "lat": 48.9046078, "lon": 2.320771}, {"type": "node", "id": 880226741, "lat": 48.902387, "lon": 2.302651}, {"type": "node", "id": 880227112, "lat": 48.9049344, "lon": 2.3194963}, {"type": "node", "id": 880227571, "lat": 48.9039366, "lon": 2.3204187}, {"type": "node", "id": 880227686, "lat": 48.9047033, "lon": 2.319263}, {"type": "node", "id": 880227929, "lat": 48.9039313, "lon": 2.3204038}, {"type": "node", "id": 880228187, "lat": 48.899916, "lon": 2.3058158}, {"type": "node", "id": 880228754, "lat": 48.9044153, "lon": 2.320697}, {"type": "node", "id": 880228807, "lat": 48.9047829, "lon": 2.3193953}, {"type": "node", "id": 880229203, "lat": 48.9051219, "lon": 2.3198654}, {"type": "node", "id": 880229938, "lat": 48.9044883, "lon": 2.3207248}, {"type": "node", "id": 880230063, "lat": 48.9044735, "lon": 2.320613}, {"type": "node", "id": 880230118, "lat": 48.9044796, "lon": 2.3207216}, {"type": "node", "id": 880230212, "lat": 48.9024385, "lon": 2.3030391}, {"type": "node", "id": 880232046, "lat": 48.9038607, "lon": 2.3197831}, {"type": "node", "id": 880232422, "lat": 48.8998577, "lon": 2.3056928}, {"type": "node", "id": 880234771, "lat": 48.9038676, "lon": 2.3198652}, {"type": "node", "id": 880235113, "lat": 48.9024981, "lon": 2.3029754}, {"type": "node", "id": 880236096, "lat": 48.903984, "lon": 2.3200366}, {"type": "node", "id": 880236169, "lat": 48.9046537, "lon": 2.3192067}, {"type": "node", "id": 880237328, "lat": 48.9025778, "lon": 2.3027696}, {"type": "node", "id": 880241894, "lat": 48.9044575, "lon": 2.3207131}, {"type": "node", "id": 880241939, "lat": 48.9044665, "lon": 2.3207166}, {"type": "node", "id": 880243212, "lat": 48.9024344, "lon": 2.3030434}, {"type": "node", "id": 880243582, "lat": 48.9041443, "lon": 2.3201755}, {"type": "node", "id": 880244091, "lat": 48.9040724, "lon": 2.3201749}, {"type": "node", "id": 880244227, "lat": 48.9026032, "lon": 2.3028222}, {"type": "node", "id": 880245233, "lat": 48.9043733, "lon": 2.3204794}, {"type": "node", "id": 880247870, "lat": 48.9024179, "lon": 2.3026644}, {"type": "node", "id": 880248350, "lat": 48.9038258, "lon": 2.319367}, {"type": "node", "id": 880250316, "lat": 48.9025587, "lon": 2.3027297}, {"type": "node", "id": 880251166, "lat": 48.9048506, "lon": 2.3193314}, {"type": "node", "id": 880252080, "lat": 48.9042512, "lon": 2.3203175}, {"type": "node", "id": 880252946, "lat": 48.903983, "lon": 2.3200366}, {"type": "node", "id": 880259137, "lat": 48.8999352, "lon": 2.3056095}, {"type": "node", "id": 880260513, "lat": 48.9050872, "lon": 2.3199056}, {"type": "node", "id": 880264313, "lat": 48.9038448, "lon": 2.3195934}, {"type": "node", "id": 880264769, "lat": 48.9042306, "lon": 2.3192886}, {"type": "node", "id": 880267521, "lat": 48.9046565, "lon": 2.3204735}, {"type": "node", "id": 880272578, "lat": 48.9051341, "lon": 2.3200449}, {"type": "node", "id": 880275355, "lat": 48.904719, "lon": 2.3192474}, {"type": "node", "id": 880279972, "lat": 48.9044416, "lon": 2.3207071}, {"type": "node", "id": 880280318, "lat": 48.9047297, "lon": 2.3206614}, {"type": "node", "id": 924126457, "lat": 48.8249555, "lon": 2.3768417}, {"type": "node", "id": 924127198, "lat": 48.8247954, "lon": 2.3770816, "tags": {"addr:housenumber": "26"}}, {"type": "node", "id": 924148546, "lat": 48.824717, "lon": 2.376859}, {"type": "node", "id": 924148781, "lat": 48.8249706, "lon": 2.3767892}, {"type": "node", "id": 924157600, "lat": 48.8247188, "lon": 2.3768645}, {"type": "node", "id": 924162957, "lat": 48.8249056, "lon": 2.3769923}, {"type": "node", "id": 924171727, "lat": 48.8249755, "lon": 2.3768358}, {"type": "node", "id": 924172337, "lat": 48.8249287, "lon": 2.3769757}, {"type": "node", "id": 924231433, "lat": 48.8220499, "lon": 2.3678257}, {"type": "node", "id": 924231516, "lat": 48.8218371, "lon": 2.3682515}, {"type": "node", "id": 924355144, "lat": 48.8937326, "lon": 2.3486967}, {"type": "node", "id": 924356919, "lat": 48.893619, "lon": 2.3486102}, {"type": "node", "id": 924359005, "lat": 48.8935435, "lon": 2.3490415}, {"type": "node", "id": 924359423, "lat": 48.8938644, "lon": 2.3480193}, {"type": "node", "id": 924360898, "lat": 48.8936607, "lon": 2.3490672}, {"type": "node", "id": 924361163, "lat": 48.8937726, "lon": 2.3484913}, {"type": "node", "id": 924362493, "lat": 48.8936978, "lon": 2.3481591}, {"type": "node", "id": 924362926, "lat": 48.8937071, "lon": 2.3488289}, {"type": "node", "id": 924365423, "lat": 48.8935718, "lon": 2.3488797}, {"type": "node", "id": 924367879, "lat": 48.8936905, "lon": 2.3489143}, {"type": "node", "id": 929138936, "lat": 48.8414593, "lon": 2.3230345}, {"type": "node", "id": 929139418, "lat": 48.8410023, "lon": 2.3224674}, {"type": "node", "id": 929139722, "lat": 48.8414594, "lon": 2.3229118}, {"type": "node", "id": 929140604, "lat": 48.8410935, "lon": 2.3221341}, {"type": "node", "id": 929140697, "lat": 48.8415474, "lon": 2.3230778}, {"type": "node", "id": 929140858, "lat": 48.8414601, "lon": 2.322596}, {"type": "node", "id": 929140885, "lat": 48.8412044, "lon": 2.3219356}, {"type": "node", "id": 929141140, "lat": 48.8411672, "lon": 2.3228738}, {"type": "node", "id": 929141428, "lat": 48.841043, "lon": 2.3228914}, {"type": "node", "id": 929141541, "lat": 48.8414586, "lon": 2.3230918}, {"type": "node", "id": 929141951, "lat": 48.8410098, "lon": 2.3221939}, {"type": "node", "id": 929142222, "lat": 48.8410227, "lon": 2.3221651}, {"type": "node", "id": 929142403, "lat": 48.8414598, "lon": 2.3229896}, {"type": "node", "id": 929142710, "lat": 48.8414597, "lon": 2.3224696}, {"type": "node", "id": 929142724, "lat": 48.8414597, "lon": 2.3225662}, {"type": "node", "id": 929143209, "lat": 48.8414579, "lon": 2.3232083}, {"type": "node", "id": 929143547, "lat": 48.8414601, "lon": 2.3226926}, {"type": "node", "id": 929143628, "lat": 48.8410134, "lon": 2.3225821}, {"type": "node", "id": 929143753, "lat": 48.8410179, "lon": 2.3222427}, {"type": "node", "id": 929144076, "lat": 48.8410066, "lon": 2.3222469}, {"type": "node", "id": 929144084, "lat": 48.8415875, "lon": 2.3229659}, {"type": "node", "id": 929144115, "lat": 48.8410093, "lon": 2.3222697}, {"type": "node", "id": 929144129, "lat": 48.8413823, "lon": 2.3234084}, {"type": "node", "id": 929144420, "lat": 48.8414998, "lon": 2.3229402}, {"type": "node", "id": 929144433, "lat": 48.8415313, "lon": 2.3223361}, {"type": "node", "id": 929144509, "lat": 48.8411432, "lon": 2.3233494}, {"type": "node", "id": 929144740, "lat": 48.8414601, "lon": 2.3225075}, {"type": "node", "id": 929144958, "lat": 48.8414925, "lon": 2.3230364}, {"type": "node", "id": 929145141, "lat": 48.8410157, "lon": 2.322337}, {"type": "node", "id": 929145586, "lat": 48.8414463, "lon": 2.3233598}, {"type": "node", "id": 929145600, "lat": 48.8410225, "lon": 2.3224532}, {"type": "node", "id": 929145904, "lat": 48.8414984, "lon": 2.323018}, {"type": "node", "id": 929146345, "lat": 48.8414598, "lon": 2.3225705}, {"type": "node", "id": 929146399, "lat": 48.8410247, "lon": 2.3221619}, {"type": "node", "id": 929146824, "lat": 48.8414915, "lon": 2.3232339}, {"type": "node", "id": 929948413, "lat": 48.8323363, "lon": 2.3154696}, {"type": "node", "id": 929948471, "lat": 48.8323483, "lon": 2.3154527}, {"type": "node", "id": 929949213, "lat": 48.8325021, "lon": 2.3157369}, {"type": "node", "id": 929949988, "lat": 48.8322123, "lon": 2.3156495}, {"type": "node", "id": 929950105, "lat": 48.832356, "lon": 2.3154413}, {"type": "node", "id": 929952980, "lat": 48.8322107, "lon": 2.3156469}, {"type": "node", "id": 929956154, "lat": 48.832507, "lon": 2.3156298}, {"type": "node", "id": 929956895, "lat": 48.832273, "lon": 2.3155593}, {"type": "node", "id": 929957219, "lat": 48.8323641, "lon": 2.3159259}, {"type": "node", "id": 929961199, "lat": 48.8322584, "lon": 2.3155794}, {"type": "node", "id": 929963847, "lat": 48.8323834, "lon": 2.315403}, {"type": "node", "id": 930290609, "lat": 48.8268854, "lon": 2.3119347}, {"type": "node", "id": 930290681, "lat": 48.8268104, "lon": 2.3122697}, {"type": "node", "id": 930292009, "lat": 48.8264844, "lon": 2.3125902}, {"type": "node", "id": 930292340, "lat": 48.8267471, "lon": 2.3115988}, {"type": "node", "id": 930294225, "lat": 48.8264509, "lon": 2.3124345}, {"type": "node", "id": 930294457, "lat": 48.8264691, "lon": 2.3124684}, {"type": "node", "id": 930295915, "lat": 48.8268231, "lon": 2.3122761}, {"type": "node", "id": 930300378, "lat": 48.8264676, "lon": 2.3125604}, {"type": "node", "id": 930303340, "lat": 48.8264955, "lon": 2.31261}, {"type": "node", "id": 930309703, "lat": 48.8265249, "lon": 2.3126617}, {"type": "node", "id": 930311709, "lat": 48.826647, "lon": 2.3115485}, {"type": "node", "id": 930311891, "lat": 48.8266556, "lon": 2.3115529}, {"type": "node", "id": 930317638, "lat": 48.8265264, "lon": 2.3126596}, {"type": "node", "id": 930318490, "lat": 48.8265889, "lon": 2.311811}, {"type": "node", "id": 930318649, "lat": 48.827081, "lon": 2.3117703}, {"type": "node", "id": 930319424, "lat": 48.8266923, "lon": 2.3115706}, {"type": "node", "id": 930320320, "lat": 48.82664, "lon": 2.3118371}, {"type": "node", "id": 930323241, "lat": 48.8266348, "lon": 2.3118605}, {"type": "node", "id": 930331668, "lat": 48.8264974, "lon": 2.3125209}, {"type": "node", "id": 930338529, "lat": 48.8265836, "lon": 2.3118344}, {"type": "node", "id": 930342723, "lat": 48.8267925, "lon": 2.3116219}, {"type": "node", "id": 930343758, "lat": 48.8270276, "lon": 2.3120056}, {"type": "node", "id": 948387564, "lat": 48.8660666, "lon": 2.2739354, "tags": {"addr:city": "Paris", "brand": "U Express", "brand:wikidata": "Q2529029", "brand:wikipedia": "en:Syst\u00e8me U", "name": "U Express", "shop": "supermarket", "source": "cadastre-dgi-fr source : Direction G\u00e9n\u00e9rale des Imp\u00f4ts - Cadastre. Mise \u00e0 jour : 2010", "website": "https://www.magasins-u.com/magasin/uexpress-parisdufrenoy.m23301"}}, {"type": "node", "id": 979335566, "lat": 48.8496801, "lon": 2.2729587, "tags": {"addr:housenumber": "19", "addr:street": "Avenue Perrichont", "barrier": "entrance", "brand": "Franprix", "brand:wikidata": "Q2420096", "brand:wikipedia": "fr:Franprix", "foot": "yes", "name": "March\u00e9 Franprix", "opening_hours": "Mo-Sa 07:30-22:30; Su 09:00-20:00", "operator": "Franprix", "phone": "+33 1 45 20 78 42", "shop": "supermarket", "website": "https://www.franprix.fr/magasins/1460"}}, {"type": "node", "id": 980287454, "lat": 48.8840552, "lon": 2.298033}, {"type": "node", "id": 980306462, "lat": 48.8837405, "lon": 2.2975859}, {"type": "node", "id": 980318976, "lat": 48.8838914, "lon": 2.2981977}, {"type": "node", "id": 980431544, "lat": 48.8837998, "lon": 2.2975189}, {"type": "node", "id": 980445995, "lat": 48.8836537, "lon": 2.2976837}, {"type": "node", "id": 980476395, "lat": 48.8837539, "lon": 2.2975705}, {"type": "node", "id": 980479343, "lat": 48.883707, "lon": 2.2976239}, {"type": "node", "id": 993549750, "lat": 48.8840062, "lon": 2.2980823, "tags": {"addr:housenumber": "159", "source": "cadastre-dgi-fr source : Direction G\u00e9n\u00e9rale des Imp\u00f4ts - Cadastre. Mise \u00e0 jour : 2010"}}, {"type": "node", "id": 993549768, "lat": 48.8839388, "lon": 2.29815, "tags": {"addr:housenumber": "157", "source": "cadastre-dgi-fr source : Direction G\u00e9n\u00e9rale des Imp\u00f4ts - Cadastre. Mise \u00e0 jour : 2010"}}, {"type": "node", "id": 1051785709, "lat": 48.9033892, "lon": 2.3032638, "tags": {"branch": "Clichy", "brand": "Auchan Supermarch\u00e9", "brand:wikidata": "Q105857776", "name": "Auchan Supermarch\u00e9", "shop": "supermarket"}}, {"type": "node", "id": 1059726434, "lat": 48.8363144, "lon": 2.298982, "tags": {"brand": "Naturalia", "brand:wikidata": "Q3337081", "brand:wikipedia": "fr:Naturalia", "contact:city": "Paris", "contact:housenumber": "222", "contact:phone": "+33 1 56 08 24 40", "contact:postcode": "75015", "contact:street": "Rue de la Convention", "contact:website": "https://naturalia.fr/", "name": "Naturalia", "note": "auparavant Bistro Romain", "opening_hours": "Mo-Sa 09:00-20:45; Su 09:00-12:45", "operator": "Groupe Casino", "organic": "only", "payment:cash": "yes", "payment:credit_cards": "yes", "ref:FR:SIRET": "30247464800557", "shop": "supermarket"}}, {"type": "node", "id": 1080955970, "lat": 48.8369002, "lon": 2.3188911, "tags": {"addr:city": "Paris", "addr:housenumber": "2", "addr:postcode": "75014", "addr:street": "Place de Catalogne", "bulk_purchase": "yes", "level": "0", "name": "Choux l'\u00e9picerie", "organic": "only", "shop": "supermarket", "wheelchair": "yes"}}, {"type": "node", "id": 1080956782, "lat": 48.851599, "lon": 2.2912004, "tags": {"branch": "Grenelle", "brand": "Biocoop", "brand:wikidata": "Q2904039", "brand:wikipedia": "fr:Biocoop", "bulk_purchase": "yes", "contact:city": "Paris", "contact:fax": "+33 1 45 77 70 94", "contact:housenumber": "44", "contact:phone": "+33 1 45 77 70 14", "contact:postcode": "75015", "contact:street": "Boulevard de Grenelle", "contact:website": "https://grenelle.biocoop.net", "description": "Coop\u00e9rative agriculture biologique et autres produits consommables \u00e9thiques", "level": "0", "name": "Biocoop", "official_name": "Biocoop Grenelle", "opening_hours": "Mo-Sa 09:00-20:00; Su 09:00-12:45", "operator": "Dominique Clairefond", "organic": "only", "ref:FR:SIRET": "41749587600019", "shop": "supermarket", "wheelchair": "yes"}}, {"type": "node", "id": 1111551174, "lat": 48.8928836, "lon": 2.2855694, "tags": {"brand": "Franprix", "brand:wikidata": "Q2420096", "brand:wikipedia": "fr:Franprix", "check_date": "2025-02-23", "name": "Franprix", "opening_hours": "Mo-Sa 07:30-21:00, Su 09:00-13:00", "operator": "Groupe Casino", "shop": "supermarket", "wheelchair": "yes"}}, {"type": "node", "id": 1133506569, "lat": 48.8967948, "lon": 2.2864169, "tags": {"brand": "Franprix", "brand:wikidata": "Q2420096", "brand:wikipedia": "fr:Franprix", "name": "Franprix", "operator": "Groupe Casino", "shop": "supermarket"}}, {"type": "node", "id": 1163571474, "lat": 48.8489245, "lon": 2.2975729, "tags": {"brand": "Monoprix", "brand:wikidata": "Q3321241", "brand:wikipedia": "en:Monoprix", "check_date": "2024-04-11", "contact:city": "Paris", "contact:housenumber": "2;4", "contact:postcode": "75015", "contact:street": "Rue du Commerce", "name": "Monoprix", "opening_hours": "Mo-Sa 08:00-21:45; Su 08:00-20:00", "operator": "Groupe Casino", "phone": "+33 1 45 79 94 86", "shop": "supermarket", "website": "https://www.monoprix.fr/787.html", "wheelchair": "yes"}}, {"type": "node", "id": 1184686009, "lat": 48.8449526, "lon": 2.2857911, "tags": {"brand": "La Vie Claire", "brand:wikidata": "Q3213589", "brand:wikipedia": "fr:La Vie Claire", "bulk_purchase": "yes", "contact:city": "Paris", "contact:housenumber": "20", "contact:postcode": "75015", "contact:street": "Rue de l'\u00c9glise", "contact:website": "https://www.lavieclaire.com/magasin-bio/paris-saint-charles.html", "name": "La Vie Claire", "opening_hours": "Mo-Sa 09:30-20:00", "organic": "only", "phone": "+33 1 45 75 79 45", "ref:FR:SIRET": "63200001401132", "shop": "supermarket"}}, {"type": "node", "id": 1188949132, "lat": 48.851792, "lon": 2.277352, "tags": {"addr:housenumber": "7", "addr:street": "Rue de Boulainvilliers", "brand": "Monoprix", "brand:wikidata": "Q3321241", "brand:wikipedia": "fr:Monoprix (France)", "name": "Monop\u2019", "opening_hours": "Mo-Sa 07:30-23:55; Su 09:00-20:50", "operator": "Groupe Casino", "phone": "+33 1 53 92 26 10", "shop": "supermarket", "website": "https://www.monoprix.fr/1430.html"}}, {"type": "node", "id": 1215494567, "lat": 48.8243996, "lon": 2.3632479, "tags": {"check_date": "2025-07-27", "contact:city": "Paris", "contact:housenumber": "81", "contact:postcode": "75013", "contact:street": "Avenue d'Ivry", "cuisine": "asian", "name": "City Store", "name:zh": "\u540d\u8c6a \u8d85\u5e02", "operator": "BIGSTOREPLUS S.A.S", "ref:FR:SIREN": "434179065", "ref:FR:SIRET": "92179266900027", "shop": "supermarket", "wheelchair": "limited"}}, {"type": "node", "id": 1218400127, "lat": 48.8568769, "lon": 2.3944657, "tags": {"addr:street": "Boulevard de Charonne", "brand": "Aldi", "brand:wikidata": "Q41171373", "check_date": "2025-07-10", "name": "Aldi", "opening_hours": "Mo-Sa 08:30-21:30; Su 08:30-12:30", "phone": "+33 9 77 40 40 44", "shop": "supermarket", "website": "https://www.aldi.fr/magasins-et-horaires-d-ouverture.html/l/paris/154-boulevard-de-charonne/3435296"}}, {"type": "node", "id": 1224640815, "lat": 48.8717702, "lon": 2.3766798, "tags": {"check_date": "2025-03-29", "check_date:opening_hours": "2023-04-14", "cuisine": "asian", "name": "Chen Market", "opening_hours": "Mo-Sa 09:00-20:30; Su 08:30-13:00", "shop": "supermarket", "source": "survey 09/2017", "wheelchair": "yes"}}, {"type": "node", "id": 1240125796, "lat": 48.8740981, "lon": 2.3550319, "tags": {"brand": "Monoprix", "brand:wikidata": "Q3321241", "brand:wikipedia": "en:Monoprix", "check_date": "2025-11-05", "contact:city": "Paris", "contact:housenumber": "91", "contact:postcode": "75010", "contact:street": "Rue du Faubourg Saint-Denis", "name": "Monoprix", "opening_hours": "Mo-Sa 08:00-21:00; Su 09:00-20:00", "operator": "Groupe Casino", "ref:FR:SIRET": "55208329700143", "shop": "supermarket", "website": "https://www.monoprix.fr/365.html", "wheelchair": "yes"}}, {"type": "node", "id": 1243135650, "lat": 48.8412537, "lon": 2.3893027, "tags": {"addr:city": "Paris", "addr:country": "FR", "addr:housenumber": "161", "addr:postcode": "75012", "addr:street": "Avenue Daumesnil", "brand": "Intermarch\u00e9 Express", "brand:wikidata": "Q98278043", "brand:wikipedia": "fr:Intermarch\u00e9", "check_date": "2025-11-24", "check_date:opening_hours": "2025-11-24", "name": "Intermarch\u00e9 Express", "opening_hours": "Mo-Sa 07:30-21:00; Su 09:00-20:00", "operator": "Groupement des Mousquetaires", "phone": "+33 1 44 73 07 20", "ref:FR:SIRET": "50276337800010", "shop": "supermarket", "website": "https://www.intermarche.com/magasins/06059/paris-75012/infos-pratiques", "wheelchair": "yes"}}, {"type": "node", "id": 1251069184, "lat": 48.8818286, "lon": 2.3399461, "tags": {"brand": "Carrefour Market", "brand:wikidata": "Q2689639", "brand:wikipedia": "fr:Carrefour Market", "check_date": "2024-05-12", "name": "Carrefour Market", "opening_hours": "Mo-Sa 08:30-23:30; Su 09:00-12:45", "operator": "Carrefour", "phone": "+33 1 45 26 83 37", "shop": "supermarket", "website": "https://www.carrefour.fr/magasin/market-paris-rochechouart", "wheelchair": "yes"}}, {"type": "node", "id": 1272516678, "lat": 48.8701117, "lon": 2.3550628, "tags": {"addr:floor": "0", "brand": "Lidl", "brand:website": "http://www.lidl.fr", "brand:wikidata": "Q151954", "brand:wikipedia": "en:Lidl", "check_date": "2025-09-22", "check_date:opening_hours": "2024-10-14", "contact:city": "Paris", "contact:housenumber": "8", "contact:postcode": "75010", "contact:street": "Boulevard de Strasbourg", "contact:website": "https://www.lidl.fr/s/fr-FR/supermarches/paris/boulevard-de-strasbourg-8/", "level": "0", "name": "Lidl", "opening_hours": "Mo-Sa 08:00-21:00", "ref:FR:SIRET": "34326262213928", "shop": "supermarket", "source": "survey", "wheelchair": "yes"}}, {"type": "node", "id": 1286613939, "lat": 48.8457545, "lon": 2.3127119, "tags": {"addr:housenumber": "106;108", "addr:street": "Rue de S\u00e8vres", "brand": "G20", "brand:wikidata": "Q3504731", "brand:wikipedia": "fr:Supermarch\u00e9s G20", "check_date": "2025-10-02", "name": "G20", "opening_hours": "Mo-Sa 08:00-22:00; Su 09:00-22:00", "operator": "G20", "phone": "+33 1 43 06 50 50", "shop": "supermarket", "wheelchair": "yes"}}, {"type": "node", "id": 1300079848, "lat": 48.8647366, "lon": 2.3858705, "tags": {"addr:street": "Boulevard de M\u00e9nilmontant", "brand": "Aldi", "brand:wikidata": "Q41171373", "check_date": "2025-07-10", "name": "Aldi", "opening_hours": "Mo-Sa 08:00-21:00; Su 08:30-12:30", "phone": "+33 9 77 40 40 44", "shop": "supermarket", "website": "https://www.aldi.fr/magasins-et-horaires-d-ouverture.html/l/paris/88-boulevard-de-menilmontant/3435511"}}, {"type": "node", "id": 1307926873, "lat": 48.848189, "lon": 2.2839192, "tags": {"brand": "Monoprix", "brand:wikidata": "Q3321241", "brand:wikipedia": "en:Monoprix", "name": "Monoprix", "opening_hours": "Mo-Sa 08:00-22:50; Su 09:00-22:50", "operator": "Groupe Casino", "phone": "+33 1 45 75 02 40", "shop": "supermarket", "source": "survey", "website": "https://www.monoprix.fr/316.html"}}, {"type": "node", "id": 1312133690, "lat": 48.8623611, "lon": 2.3769354, "tags": {"addr:housenumber": "52", "addr:postcode": "75011", "addr:street": "Avenue Parmentier", "brand": "Bio C' Bon", "brand:wikidata": "Q54312551", "brand:wikipedia": "fr:Bio c'bon", "bulk_purchase": "yes", "check_date": "2025-02-20", "contact:facebook": "https://www.facebook.com/biocbonfrance/", "name": "Bio C' Bon", "opening_hours": "Mo-Sa 10:00-20:00; Su 10:00-13:00", "organic": "only", "shop": "supermarket", "website": "https://bio-c-bon.eu/fr/nos_magasins/bio-c-bon-paris-parmentier"}}, {"type": "node", "id": 1326762349, "lat": 48.8566909, "lon": 2.3794246, "tags": {"addr:housenumber": "166", "entrance": "yes", "source": "survey"}}, {"type": "node", "id": 1352879267, "lat": 48.883216, "lon": 2.288096, "tags": {"branch": "Paris Gouvion St-Cyr", "brand": "Auchan Supermarch\u00e9", "brand:wikidata": "Q105857776", "name": "Auchan Supermarch\u00e9", "opening_hours": "Mo-Sa 08:30-22:00; Su 09:00-13:00", "operator": "Auchan Supermarch\u00e9", "phone": "+33156688490", "shop": "supermarket", "source:date": "201107", "wheelchair": "yes"}}, {"type": "node", "id": 1362763772, "lat": 48.8242287, "lon": 2.3584557, "tags": {"brand": "Monoprix", "brand:wikidata": "Q3321241", "brand:wikipedia": "fr:Monoprix (France)", "bulk_purchase": "yes", "check_date": "2025-10-24", "contact:housenumber": "83", "contact:street": "Avenue d'Italie", "name": "Monoprix", "opening_hours": "Mo-Sa 08:00-22:00; Su 09:00-20:00", "operator": "Groupe Casino", "phone": "+33145857058", "shop": "supermarket", "website": "https://www.monoprix.fr/49.html", "wheelchair": "yes"}}, {"type": "node", "id": 1432256092, "lat": 48.8392119, "lon": 2.3946987, "tags": {"addr:housenumber": "46", "addr:street": "Boulevard de Reuilly", "branch": "Daumesnil", "brand": "Auchan Supermarch\u00e9", "brand:wikidata": "Q105857776", "check_date:opening_hours": "2025-06-26", "name": "Auchan Supermarch\u00e9", "opening_hours": "Mo-Sa 08:30-22:00; Su 09:00-13:00,13:00-20:30", "operator": "auchan", "organic": "yes", "ref:FR:SIRET": "41040901500519", "shop": "supermarket", "source": "cadastre-dgi-fr source : Direction G\u00e9n\u00e9rale des Imp\u00f4ts - Cadastre. Mise \u00e0 jour : 2010", "toilets:wheelchair": "designated", "website": "https://www.auchan.fr/magasins/supermarche/auchan-supermarche-daumesnil/s-1101", "wheelchair": "yes"}}, {"type": "node", "id": 1446934502, "lat": 48.8622321, "lon": 2.2761349, "tags": {"branch": "Paris La Pompe", "brand": "Auchan Supermarch\u00e9", "brand:wikidata": "Q105857776", "check_date": "2025-08-12", "name": "Auchan Supermarch\u00e9", "opening_hours": "Mo-Sa 08:00-21:00, Su 08:30-12:30", "shop": "supermarket"}}, {"type": "node", "id": 1450939221, "lat": 48.826016, "lon": 2.4054078, "tags": {"branch": "Charenton", "brand": "Auchan Supermarch\u00e9", "brand:wikidata": "Q105857776", "contact:street": "Place des Marseillais", "name": "Auchan Supermarch\u00e9", "opening_hours": "Mo-Sa 08:30-21:00; Su 09:00-13:00", "ref:FR:SIRET": "41040901500063", "shop": "supermarket"}}, {"type": "node", "id": 1457027508, "lat": 48.8933957, "lon": 2.3335323, "tags": {"brand": "Monoprix", "brand:wikidata": "Q3321241", "brand:wikipedia": "en:Monoprix", "name": "Monoprix", "opening_hours": "Mo-Sa 08:00-22:00; Su 09:00-20:00", "operator": "Groupe Casino", "phone": "+33 1 46 27 33 03", "shop": "supermarket", "website": "https://www.monoprix.fr/33.html"}}, {"type": "node", "id": 1458413017, "lat": 48.8321025, "lon": 2.3445967, "tags": {"brand": "Biocoop", "brand:wikidata": "Q2904039", "brand:wikipedia": "fr:Biocoop", "bulk_purchase": "yes", "check_date:opening_hours": "2024-09-12", "contact:city": "Paris", "contact:email": "equipe.glaciere@ruchebiocoop.com", "contact:housenumber": "53", "contact:phone": "+33 1 40 29 48 59", "contact:postcode": "75013", "contact:street": "Rue de la Glaci\u00e8re", "contact:website": "https://www.biocoop.fr/magasins-bio/Trouver-mon-magasin-Biocoop/Ile-de-France/Paris/BIOCOOP-LA-RUCHE-DE-GLACIERE", "name": "Biocoop", "opening_hours": "Mo-Sa 10:00-20:00", "operator": "Biocoop", "organic": "only", "shop": "supermarket", "wheelchair": "yes"}}, {"type": "node", "id": 1477602786, "lat": 48.865499, "lon": 2.3352849, "tags": {"check_date": "2025-12-01", "check_date:opening_hours": "2025-12-01", "contact:city": "Paris", "contact:housenumber": "8", "contact:phone": "+33 1 58 62 49 09", "contact:postcode": "75001", "contact:street": "Rue Sainte-Anne", "cuisine": "korean;japanese", "description": "Supermarch\u00e9 cor\u00e9en vendant \u00e9galement des produits japonais", "name": "K-mart", "opening_hours": "Mo-Su 10:00-21:00", "shop": "supermarket", "source": "survey", "website": "https://www.k-mart.fr/opera", "wheelchair": "yes"}}, {"type": "node", "id": 1509815470, "lat": 48.8414253, "lon": 2.2875706, "tags": {"brand": "Monoprix", "brand:wikidata": "Q3321241", "brand:wikipedia": "en:Monoprix", "fax": "+33145794272", "name": "Monoprix", "opening_hours": "Mo-Sa 08:00-22:00; Su 08:00-20:00", "operator": "Groupe Casino", "phone": "+33145799486", "shop": "supermarket", "source": "survey", "website": "https://www.monoprix.fr/793.html", "wheelchair": "yes"}}, {"type": "node", "id": 1549569240, "lat": 48.8758485, "lon": 2.3239613}, {"type": "node", "id": 1549569260, "lat": 48.8758628, "lon": 2.3240776}, {"type": "node", "id": 1567274170, "lat": 48.8960005, "lon": 2.2769038, "tags": {"brand": "Franprix", "brand:wikidata": "Q2420096", "brand:wikipedia": "fr:Franprix", "name": "March\u00e9 Franprix", "opening_hours": "Mo-Sa 08:30-20:30", "operator": "Groupe Casino", "shop": "supermarket", "wheelchair": "no"}}, {"type": "node", "id": 1569045985, "lat": 48.8664526, "lon": 2.333868, "tags": {"brand": "Monoprix", "brand:wikidata": "Q3321241", "brand:wikipedia": "en:Monoprix", "check_date": "2023-08-07", "contact:city": "Paris", "contact:housenumber": "23", "contact:postcode": "75001", "contact:street": "Avenue de l'Op\u00e9ra", "name": "Monoprix", "note": "Rajouter piano en libre service", "opening_hours": "Mo-Sa 08:00-22:00; Su 09:30-21:00", "operator": "Groupe Casino", "payment:mastercard": "yes", "payment:visa": "yes", "phone": "+33 1 42 61 78 08", "shop": "supermarket", "website": "https://www.monoprix.fr/766.html", "wheelchair": "yes"}}, {"type": "node", "id": 1581617291, "lat": 48.8454572, "lon": 2.3809648, "tags": {"brand": "Franprix", "brand:wikidata": "Q2420096", "brand:wikipedia": "fr:Franprix", "check_date": "2025-10-05", "name": "March\u00e9 Franprix", "opening_hours": "Mo-Sa 07:30-21:00; Su 09:00-13:00", "operator": "Franprix", "shop": "supermarket", "wheelchair": "yes"}}, {"type": "node", "id": 1585523626, "lat": 48.8332568, "lon": 2.331206, "tags": {"addr:housenumber": "8", "addr:postcode": "75014", "addr:street": "Avenue du G\u00e9n\u00e9ral Leclerc", "brand": "Monoprix", "brand:wikidata": "Q3321241", "brand:wikipedia": "fr:Monoprix (France)", "check_date": "2024-06-01", "name": "Monoprix", "opening_hours": "Mo-Sa 09:00-23:00; Su 09:00-20:00", "operator": "Groupe Casino", "phone": "+33 1 43 20 22 20", "shop": "supermarket", "website": "https://www.monoprix.fr/792.html", "wheelchair": "yes"}}, {"type": "node", "id": 1659198583, "lat": 48.827104, "lon": 2.3091222, "tags": {"brand": "Carrefour Market", "brand:wikidata": "Q2689639", "brand:wikipedia": "fr:Carrefour Market", "contact:city": "Paris", "contact:housenumber": "43", "contact:postcode": "75014", "contact:street": "Boulevard Brune", "name": "Carrefour Market", "old_name": "Champion", "opening_hours": "Mo-Sa 08:30-21:30; Su 09:00-13:00", "operator": "Carrefour", "phone": "+33 1 40 52 05 80", "shop": "supermarket", "source": "survey", "website": "https://www.carrefour.fr/magasin/market-paris-brune", "wheelchair": "yes"}}, {"type": "node", "id": 1667577640, "lat": 48.8946097, "lon": 2.3446712, "tags": {"brand": "G20", "brand:wikidata": "Q3504731", "brand:wikipedia": "fr:Supermarch\u00e9s G20", "name": "G20", "opening_hours": "Tu-Su 09:00-21:30", "operator": "G20", "shop": "supermarket"}}, {"type": "node", "id": 1668443947, "lat": 48.894008, "lon": 2.342013, "tags": {"addr:city": "Paris", "addr:postcode": "75018", "brand": "Monoprix", "brand:wikidata": "Q3321241", "brand:wikipedia": "en:Monoprix", "name": "Monoprix", "opening_hours": "Mo-Sa 08:00-21:45; Su 09:00-19:30", "operator": "Groupe Casino", "phone": "+33 1 42 62 22 01", "shop": "supermarket", "website": "https://www.monoprix.fr/21.html"}}, {"type": "node", "id": 1668769543, "lat": 48.8937791, "lon": 2.3480902, "tags": {"addr:housenumber": "34", "entrance": "main"}}, {"type": "node", "id": 1670553045, "lat": 48.8550011, "lon": 2.3062259, "tags": {"brand": "Naturalia", "brand:wikidata": "Q3337081", "brand:wikipedia": "fr:Naturalia", "name": "Naturalia", "opening_hours": "Mo-Sa 09:00-20:45; Su 09:30-12:45", "operator": "Groupe Casino", "organic": "only", "phone": "+33 1 45 51 10 10", "ref:FR:SIRET": "30247464800136", "shop": "supermarket", "source": "survey", "website": "https://naturalia.fr/"}}, {"type": "node", "id": 1674948180, "lat": 48.892962, "lon": 2.34443, "tags": {"name": "Sitis Market", "shop": "supermarket"}}, {"type": "node", "id": 1696336922, "lat": 48.8200092, "lon": 2.2909671, "tags": {"addr:city": "Vanves", "addr:housenumber": "2-4", "addr:postcode": "92170", "addr:street": "Rue Ernest Laval", "brand": "Intermarch\u00e9", "brand:wikidata": "Q3153200", "brand:wikipedia": "fr:Intermarch\u00e9", "check_date": "2024-07-14", "name": "Intermarch\u00e9", "opening_hours": "Mo-Sa 08:30-21:00, Su 09:00-13:00", "operator": "Groupement des Mousquetaires", "payment:cash": "yes", "payment:credit_cards": "yes", "phone": "+33 1 46 38 84 82", "shop": "supermarket", "wheelchair": "yes"}}, {"type": "node", "id": 1716475857, "lat": 48.8791372, "lon": 2.3927158, "tags": {"brand": "Lidl", "brand:website": "http://www.lidl.fr", "brand:wikidata": "Q151954", "brand:wikipedia": "en:Lidl", "check_date": "2025-03-29", "dog": "no", "name": "Lidl", "opening_hours": "Mo-Sa 08:00-21:00", "operator": "Lidl", "shop": "supermarket"}}, {"type": "node", "id": 1737574861, "lat": 48.8292969, "lon": 2.357799, "tags": {"brand:wikidata": "Q1005336", "check_date": "2025-05-07", "contact:housenumber": "168", "contact:postcode": "75013", "contact:street": "Avenue de Choisy", "name": "Tang Fr\u00e8res", "opening_hours": "Mo-Sa 10:00-20:30", "operator": "Tang Fr\u00e8res", "origin": "asian", "shop": "supermarket", "source:opening_hours": "sign", "website": "http://www.tang-freres.fr/supermarche-asiatique/tang-freres-paris-13-avenue-choisy/", "wheelchair": "yes"}}, {"type": "node", "id": 1748959708, "lat": 48.8572495, "lon": 2.3907287, "tags": {"addr:city": "Paris", "addr:housenumber": "114", "addr:postcode": "75011", "addr:street": "Avenue Philippe Auguste", "air_conditioning": "yes", "bulk_purchase": "yes", "image": "https://www.leretouralaterre.fr/_img/ws40T4Qf_tMWbjdL9AgjjxpMqbw=/fit-in/2000_x_2000/filters:upscale():quality(90):strip_exif()/reboot/media/c8ee477c-6990-11e8-bc4c-fa163e14ea56/900ccdb0-70b2-11e8-a602-fa163e14ea56/0-vitrine-vue-de-lentree.jpg", "name": "Le Retour \u00e0 la Terre", "opening_hours": "Mo-Sa 10:00-20:00", "operator": "Bio PHILIPPE AUGUSTE CHARONNE", "organic": "only", "payment:cash": "yes", "payment:credit_cards": "yes", "payment:debit_cards": "yes", "payment:visa": "yes", "phone": "+33 1 44 93 81 81", "shop": "supermarket", "website": "https://leretouralaterre.fr/", "wheelchair": "yes"}}, {"type": "node", "id": 1756731305, "lat": 48.8391782, "lon": 2.2998895, "tags": {"addr:street": "Rue de Vaugirard", "brand": "Aldi", "brand:wikidata": "Q41171373", "brand:wikipedia": "fr:Aldi", "check_date": "2025-07-11", "check_date:opening_hours": "2022-04-26", "contact:city": "Paris", "contact:housenumber": "272", "contact:postcode": "75015", "contact:street": "Rue de Vaugirard", "name": "Aldi", "opening_hours": "Mo-Sa 08:00-21:30; Su 08:00-12:30", "phone": "+33 9 77 40 40 44", "ref:FR:SIRET": "41459903502101", "shop": "supermarket", "source": "cadastre-dgi-fr source : Direction G\u00e9n\u00e9rale des Imp\u00f4ts - Cadastre;mise \u00e0 jour : 2012;survey", "website": "https://www.aldi.fr/magasins-et-horaires-d-ouverture.html/l/paris/272-rue-de-vaugirard/3435097"}}, {"type": "node", "id": 1775896671, "lat": 48.8846545, "lon": 2.3473544, "tags": {"addr:street": "Rue de Clignancourt", "brand": "Aldi", "brand:wikidata": "Q41171373", "check_date": "2025-07-10", "name": "Aldi", "opening_hours": "Mo-Sa 08:00-21:00; Su 08:30-12:30", "operator": "ALDI", "phone": "+33 9 77 40 40 44", "shop": "supermarket", "source": "local knowledge", "website": "https://www.aldi.fr/magasins-et-horaires-d-ouverture.html/l/paris/12-14-rue-de-clignancourt/3435337"}}, {"type": "node", "id": 1785271476, "lat": 48.8358797, "lon": 2.4026669, "tags": {"brand": "Naturalia", "brand:wikidata": "Q3337081", "brand:wikipedia": "fr:Naturalia", "name": "Naturalia", "opening_hours": "Mo-Sa 09:00-20:45; Su 09:00-12:45", "operator": "Groupe Casino", "organic": "only", "phone": "+33 1 43 43 85 25", "ref:FR:SIRET": "30247464800508", "shop": "supermarket", "website": "https://magasins.naturalia.fr/naturalia/fr/store/france/ile-de-france/paris/paris/bizot/3803", "wheelchair": "yes"}}, {"type": "node", "id": 1789405050, "lat": 48.8817666, "lon": 2.3371231, "tags": {"addr:city": "Paris", "addr:housenumber": "9", "addr:postcode": "75009", "addr:street": "Place Pigalle", "brand": "Bio C' Bon", "brand:wikidata": "Q54312551", "brand:wikipedia": "fr:Bio c'bon", "bulk_purchase": "yes", "contact:facebook": "https://www.facebook.com/biocbonfrance/", "name": "Bio C' Bon", "opening_hours": "Mo-Sa 09:30-20:30; Su 09:30-13:30", "operator": "Bio C' Bon", "organic": "only", "shop": "supermarket", "website": "https://bio-c-bon.eu/fr/nos_magasins/bio-c-bon-paris-pigalle", "wheelchair": "yes"}}, {"type": "node", "id": 1793355690, "lat": 48.8974057, "lon": 2.2880062, "tags": {"addr:city": "Levallois-Perret", "addr:housenumber": "86", "addr:postcode": "92300", "addr:street": "Rue \u00c9douard Vaillant", "brand": "Aldi", "brand:wikidata": "Q41171373", "brand:wikipedia": "en:Aldi", "check_date": "2025-07-11", "name": "Aldi", "opening_hours": "Mo-Sa 08:30-20:30; Su 08:30-12:30", "operator": "ALDI", "phone": "+33 9 77 40 40 44", "shop": "supermarket", "website": "https://www.aldi.fr/magasins-et-horaires-d-ouverture.html/l/levallois-perret/80-90-rue-edouard-vaillant/3435715"}}, {"type": "node", "id": 1795299679, "lat": 48.8414189, "lon": 2.3233806, "tags": {"entrance": "main"}}, {"type": "node", "id": 1795309754, "lat": 48.8413872, "lon": 2.3221595, "tags": {"entrance": "main"}}, {"type": "node", "id": 1799510199, "lat": 48.87102, "lon": 2.3526811, "tags": {"check_date:opening_hours": "2025-08-09", "name": "Maison Huang", "opening_hours": "Mo-Sa 09:00-20:30", "operator": "Huang Roseline", "phone": "+33 1 45 89 67 43", "shop": "supermarket", "source": "survey:16-01-28", "wheelchair": "yes"}}, {"type": "node", "id": 1825232918, "lat": 48.889018, "lon": 2.287987, "tags": {"brand": "Monoprix", "brand:wikidata": "Q3321241", "brand:wikipedia": "fr:Monoprix (France)", "name": "Monoprix", "opening_hours": "Mo-Sa 07:00-23:55; Su 09:00-21:00", "operator": "Groupe Casino", "shop": "supermarket", "website": "https://www.monoprix.fr/1526.html", "wheelchair": "yes"}}, {"type": "node", "id": 1845111014, "lat": 48.8357293, "lon": 2.3492905, "tags": {"brand": "Monoprix", "brand:wikidata": "Q3321241", "brand:wikipedia": "fr:Monoprix (France)", "name": "Monoprix", "opening_hours": "Mo-Sa 08:00-22:00; Su 08:00-13:00", "operator": "Groupe Casino", "shop": "supermarket", "website": "https://www.monoprix.fr/1525.html", "wheelchair": "yes"}}, {"type": "node", "id": 1847624708, "lat": 48.877692, "lon": 2.3948047, "tags": {"addr:postcode": "75019", "branch": "Place des F\u00eates", "brand": "Monoprix", "brand:wikidata": "Q3321241", "brand:wikipedia": "en:Monoprix", "check_date": "2025-02-05", "contact:housenumber": "9", "contact:postcode": "75019", "contact:street": "Rue Louise Thuliez", "name": "Monoprix", "opening_hours": "Mo-Sa 08:30-21:00; Su 09:00-19:00", "operator": "Groupe Casino", "phone": "+33 1 42 02 28 78", "shop": "supermarket", "website": "https://www.monoprix.fr/836.html", "wheelchair": "yes"}}, {"type": "node", "id": 1877456892, "lat": 48.8868122, "lon": 2.3256852, "tags": {"brand": "Monoprix", "brand:wikidata": "Q3321241", "brand:wikipedia": "en:Monoprix", "check_date": "2025-05-27", "contact:city": "Paris", "contact:housenumber": "43", "contact:postcode": "75017", "contact:street": "Avenue de Clichy", "contact:website": "https://www.monoprix.fr/789.html", "level": "0", "name": "Monoprix", "opening_hours": "Mo-Sa 08:00-22:00, Su 09:00-20:00", "operator": "Groupe Casino", "payment:cash": "yes", "payment:credit_cards": "yes", "payment:debit_cards": "yes", "phone": "+33 1 42 93 22 04", "shop": "supermarket", "toilets": "no", "wheelchair": "yes"}}, {"type": "node", "id": 1877539384, "lat": 48.883444, "lon": 2.3329119, "tags": {"addr:city": "Paris", "addr:housenumber": "52", "addr:postcode": "75009", "addr:street": "Rue Pierre Fontaine", "brand": "Monoprix", "brand:wikidata": "Q3321241", "brand:wikipedia": "en:Monoprix", "check_date": "2024-04-23", "name": "Monoprix", "opening_hours": "Mo-Sa 08:00-22:00; Su 09:00-20:00", "operator": "Groupe Casino", "shop": "supermarket", "website": "https://www.monoprix.fr/838.html", "wheelchair": "yes"}}, {"type": "node", "id": 1877597664, "lat": 48.8830525, "lon": 2.326204, "tags": {"addr:postcode": "75008", "branch": "Paris Batignolles", "brand": "Auchan Supermarch\u00e9", "brand:wikidata": "Q105857776", "name": "Auchan Supermarch\u00e9", "opening_hours": "Tu-Sa 08:00-23:45; Su 08:30-12:30, 13:00-20:30; Mo 09:00-23:45", "operator": "Auchan Supermarch\u00e9", "shop": "supermarket", "website": "https://www.auchan.fr/magasins/supermarche/auchan-supermarche-paris-batignolles/s-1069", "wheelchair": "yes"}}, {"type": "node", "id": 1896120018, "lat": 48.8938623, "lon": 2.3337104, "tags": {"addr:city": "Paris", "addr:housenumber": "203", "addr:postcode": "75018", "addr:street": "Rue Ordener", "brand": "Monoprix", "brand:wikidata": "Q3321241", "brand:wikipedia": "en:Monoprix", "name": "Monoprix", "opening_hours": "Mo-Sa 08:00-22:00; Su 09:00-20:00", "operator": "Groupe Casino", "phone": "+33 1 46 27 33 03", "shop": "supermarket", "website": "https://www.monoprix.fr/33.html", "wheelchair": "yes"}}, {"type": "node", "id": 1896163166, "lat": 48.8970628, "lon": 2.337963, "tags": {"addr:street": "Rue du Poteau", "brand": "Aldi", "brand:wikidata": "Q41171373", "brand:wikipedia": "fr:Leader Price", "check_date": "2025-07-11", "name": "Aldi", "opening_hours": "Mo-Sa 08:30-21:00; Su 08:30-12:30", "operator": "Aldi", "phone": "+33 9 77 40 40 44", "shop": "supermarket", "website": "https://www.aldi.fr/magasins-et-horaires-d-ouverture.html/l/paris/91-95-rue-du-poteau/3435550"}}, {"type": "node", "id": 1938608271, "lat": 48.8414107, "lon": 2.280804, "tags": {"brand": "Lidl", "brand:website": "http://www.lidl.fr", "brand:wikidata": "Q151954", "brand:wikipedia": "en:Lidl", "check_date": "2024-05-26", "contact:city": "Paris", "contact:housenumber": "170", "contact:postcode": "75015", "contact:street": "Rue Saint-Charles", "dog": "no", "name": "Lidl", "opening_hours": "Mo-Sa 09:30-20:00; Su 08:30-12:15", "operator": "Lidl", "payment:cash": "yes", "payment:credit_cards": "yes", "payment:debit_cards": "yes", "shop": "supermarket"}}, {"type": "node", "id": 1980835319, "lat": 48.8518886, "lon": 2.4011059, "tags": {"addr:housenumber": "35", "entrance": "yes"}}, {"type": "node", "id": 2003145812, "lat": 48.8628384, "lon": 2.3526556, "tags": {"addr:floor": "0", "brand": "G20", "brand:wikidata": "Q3504731", "brand:wikipedia": "fr:Supermarch\u00e9s G20", "check_date": "2025-10-30", "delivery": "yes", "level": "0", "name": "G20", "opening_hours": "Mo-Sa 08:00-22:00; Su 09:00-20:30", "operator": "G20", "payment:cash": "yes", "payment:credit_cards": "yes", "payment:debit_cards": "yes", "payment:visa": "yes", "shop": "supermarket", "wheelchair": "yes"}}, {"type": "node", "id": 2013669103, "lat": 48.8382852, "lon": 2.3968325, "tags": {"brand": "G20", "brand:wikidata": "Q3504731", "brand:wikipedia": "fr:Supermarch\u00e9s G20", "check_date": "2025-10-07", "check_date:opening_hours": "2025-10-07", "name": "G20", "opening_hours:signed": "no", "operator": "G20", "ref:FR:SIRET": "43465955300011", "shop": "supermarket", "website": "https://www.supermarchesg20.com/nos-magasins/supermarche-g20-17"}}, {"type": "node", "id": 2025444752, "lat": 48.8426034, "lon": 2.3845997, "tags": {"brand": "Lidl", "brand:website": "http://www.lidl.fr", "brand:wikidata": "Q151954", "check_date": "2025-11-24", "check_date:opening_hours": "2025-11-24", "dog": "no", "name": "Lidl", "opening_hours": "Mo-Sa 09:00-20:30; Su 08:30-12:15", "operator": "Lidl", "payment:contactless": "yes", "payment:mastercard": "yes", "payment:visa": "yes", "ref:FR:SIRET": "34326262218851", "shop": "supermarket", "website": "https://www.lidl.fr/s/fr-FR/supermarches/paris/avenue-daumesnil-108-112/"}}, {"type": "node", "id": 2048100447, "lat": 48.8198586, "lon": 2.3810879, "tags": {"addr:postcode": "94200", "brand": "Lidl", "brand:website": "http://www.lidl.fr", "brand:wikidata": "Q151954", "brand:wikipedia": "fr:Lidl", "name": "Lidl", "opening_hours": "Mo-Sa 08:30-20:00", "operator": "Lidl", "shop": "supermarket", "wheelchair": "yes"}}, {"type": "node", "id": 2049098340, "lat": 48.8519521, "lon": 2.3848662, "tags": {"brand": "Super U", "brand:wikidata": "Q2529029", "brand:wikipedia": "en:Syst\u00e8me U", "name": "Super U", "opening_hours": "Mo-Sa 08:30-21:00; Su 09:00-20:00", "operator": "Super U", "payment:american_express": "yes", "payment:cash": "yes", "payment:visa_debit": "yes", "phone": "+33 1 43 79 43 43", "shop": "supermarket", "website": "https://www.magasins-u.com/magasin/superu-parispaulbert", "wheelchair": "yes"}}, {"type": "node", "id": 2068455172, "lat": 48.881667, "lon": 2.3735682, "tags": {"brand": "Naturalia", "brand:wikidata": "Q3337081", "brand:wikipedia": "fr:Naturalia", "check_date": "2025-10-25", "name": "Naturalia", "opening_hours": "Mo-Sa 10:00-20:45", "operator": "Groupe Casino", "organic": "only", "phone": "+33 1 42 49 18 74", "ref:FR:SIRET": "30247464800482", "shop": "supermarket", "source": "survey", "website": "https://naturalia.fr/"}}, {"type": "node", "id": 2075428205, "lat": 48.8225454, "lon": 2.3602368, "tags": {"brand": "G20", "brand:wikidata": "Q3504731", "brand:wikipedia": "fr:Supermarch\u00e9s G20", "check_date:opening_hours": "2022-04-19", "name": "G20", "opening_hours": "Mo 10:00-21:00, Tu-Sa 09:30-21:00, Su 09:00-13:30", "shop": "supermarket", "source:opening_hours": "survey", "wheelchair": "yes"}}, {"type": "node", "id": 2092548679, "lat": 48.8822706, "lon": 2.3712054, "tags": {"addr:city": "Paris", "addr:housenumber": "13", "addr:postcode": "75019", "addr:street": "Avenue Secr\u00e9tan", "brand": "Monoprix", "brand:wikidata": "Q3321241", "brand:wikipedia": "en:Monoprix", "check_date": "2025-11-18", "check_date:opening_hours": "2025-11-18", "description": "Clothing, Beauty & Baby Goods", "name": "Monoprix", "opening_hours": "Mo-Sa 09:00-20:00", "operator": "Groupe Casino", "payment:cash": "yes", "payment:credit_cards": "yes", "payment:debit_cards": "yes", "phone": "+33 1 42 08 80 43", "shop": "supermarket", "website": "https://www.monoprix.fr/807.html", "wheelchair": "yes"}}, {"type": "node", "id": 2124325919, "lat": 48.8578607, "lon": 2.4038802, "tags": {"bulk_purchase": "yes", "check_date": "2025-10-26", "check_date:opening_hours": "2025-10-26", "contact:city": "Paris", "contact:facebook": "https://www.facebook.com/toutbon.bio/", "contact:housenumber": "120", "contact:instagram": "https://www.instagram.com/toutbon.bio/", "contact:postcode": "75020", "contact:street": "Rue des Pyr\u00e9n\u00e9es", "contact:website": "https://toutbon.bio/", "name": "ToutBon vrac et bio", "opening_hours": "Mo 12:30-20:00; Tu-Sa 10:00-20:00; Su 10:00-12:45", "organic": "only", "payment:mastercard": "yes", "payment:visa": "yes", "shop": "supermarket"}}, {"type": "node", "id": 2126361727, "lat": 48.8718705, "lon": 2.343317, "tags": {"addr:city": "Paris", "addr:housenumber": "6", "addr:postcode": "75009", "addr:street": "Rue du Faubourg Montmartre", "brand": "Naturalia", "brand:wikidata": "Q3337081", "brand:wikipedia": "fr:Naturalia", "name": "Naturalia", "opening_hours": "Su-Fr 09:00-20:45; Sa 09:00-12:45", "phone": "+33 1 48 78 50 16", "shop": "supermarket", "source": "survey", "website": "https://magasins.naturalia.fr/naturalia/fr/store/france/ile-de-france/paris/paris/grands-boulevards/4002"}}, {"type": "node", "id": 2138710472, "lat": 48.8221823, "lon": 2.3039084, "tags": {"brand": "Naturalia", "brand:wikidata": "Q3337081", "brand:wikipedia": "fr:Naturalia", "check_date": "2025-06-27", "contact:housenumber": "47", "contact:postcode": "92240", "name": "Naturalia", "opening_hours": "Mo-Sa 09:00-20:45; Su 09:00-12:45", "operator": "Groupe Casino", "organic": "only", "phone": "+33 1 40 84 06 30", "shop": "supermarket", "website": "https://naturalia.fr/"}}, {"type": "node", "id": 2139158103, "lat": 48.8674114, "lon": 2.3465068, "tags": {"addr:city": "Paris", "addr:postcode": "75002", "brand": "Naturalia", "brand:wikidata": "Q3337081", "brand:wikipedia": "fr:Naturalia", "check_date": "2024-05-16", "name": "Naturalia", "opening_hours": "Mo-Sa 09:00-20:45", "operator": "Groupe Casino", "organic": "only", "phone": "+33 1 40 26 68 82", "shop": "supermarket", "source": "survey", "website": "https://naturalia.fr/", "wheelchair": "yes"}}, {"type": "node", "id": 2174795211, "lat": 48.869278, "lon": 2.3534767, "tags": {"brand": "Monoprix", "brand:wikidata": "Q3321241", "brand:wikipedia": "fr:Monoprix (France)", "check_date": "2025-09-05", "contact:city": "Paris", "contact:housenumber": "14", "contact:postcode": "75002", "contact:street": "Rue Sainte-Apolline", "level": "0", "name": "Monoprix", "opening_hours": "Mo-Sa 08:00-23:30; Su 09:00-19:45", "operator": "Groupe Casino", "phone": "+33 1 42 33 73 52", "shop": "supermarket", "source": "survey", "website": "https://www.monoprix.fr/13.html"}}, {"type": "node", "id": 2204791461, "lat": 48.8688039, "lon": 2.4016891, "tags": {"brand": "Monoprix", "brand:wikidata": "Q3321241", "brand:wikipedia": "en:Monoprix", "contact:city": "Paris", "contact:housenumber": "131", "contact:phone": "+33 1 43 61 76 97", "contact:postcode": "75020", "contact:street": "Avenue Gambetta", "name": "Monoprix", "name:en": "Monoprix Pelleport", "name:fr": "Monoprix Pelleport", "opening_hours": "Mo-Sa 08:00-23:00; Su 08:00-20:00", "operator": "Groupe Casino", "shop": "supermarket", "website": "https://www.monoprix.fr/22.html", "wheelchair": "yes"}}, {"type": "node", "id": 2207032840, "lat": 48.8233115, "lon": 2.345251, "tags": {"branch": "Boussingault", "brand": "Intermarch\u00e9", "brand:wikidata": "Q3153200", "brand:wikipedia": "fr:Intermarch\u00e9", "name": "Intermarch\u00e9", "opening_hours": "Mo-Sa 08:00-21:00; Su 09:00-21:00", "shop": "supermarket", "wheelchair": "yes"}}, {"type": "node", "id": 2214911858, "lat": 48.9060986, "lon": 2.2698543, "tags": {"brand": "G20", "brand:wikidata": "Q3504731", "brand:wikipedia": "fr:Supermarch\u00e9s G20", "name": "G20", "opening_hours": "Mo-Sa 08:30-21:00; Su 08:30-13:00", "operator": "Groupe Casino", "shop": "supermarket", "wheelchair": "yes"}}, {"type": "node", "id": 2254950108, "lat": 48.8888155, "lon": 2.3602548, "tags": {"brand": "Monoprix", "brand:wikidata": "Q3321241", "brand:wikipedia": "en:Monoprix", "diet:halal": "yes", "level": "0", "name": "Monoprix", "opening_hours": "Mo-Sa 08:30-21:45; Su 09:00-12:35", "operator": "Groupe Casino", "phone": "+33 1 46 07 44 26", "shop": "supermarket", "toilets": "no", "website": "https://www.monoprix.fr/851.html", "wheelchair": "yes"}}, {"type": "node", "id": 2295207233, "lat": 48.890028, "lon": 2.3261873, "tags": {"brand": "Carrefour Market", "brand:wikidata": "Q2689639", "brand:wikipedia": "fr:Carrefour Market", "name": "Carrefour Market", "opening_hours": "Mo-Sa 07:00-22:00, Su 09:00-22:00", "operator": "Dia France", "phone": "+33 1 40 25 00 74", "shop": "supermarket", "website": "https://www.carrefour.fr/magasin/market-paris-guy-moquet", "wheelchair": "no"}}, {"type": "node", "id": 2299909822, "lat": 48.8459472, "lon": 2.3821633, "tags": {"addr:postcode": "75012", "branch": "Crozatier", "brand": "Naturalia", "brand:wikidata": "Q3337081", "brand:wikipedia": "fr:Naturalia", "check_date:opening_hours": "2025-08-08", "name": "Naturalia", "opening_hours": "Mo-Sa 09:00-20:45; Su 09:00-12:45", "operator": "Groupe Casino", "organic": "only", "phone": "+33 1 43 40 80 05", "ref:FR:SIRET": "30247464800730", "shop": "supermarket", "website": "https://magasins.naturalia.fr/naturalia/fr/store/france/ile-de-france/paris/paris/crozatier/3860"}}, {"type": "node", "id": 2302817995, "lat": 48.8914236, "lon": 2.3771793, "tags": {"addr:city": "Paris", "addr:housenumber": "119", "addr:postcode": "75019", "addr:street": "Avenue de Flandre", "brand": "Monoprix", "brand:wikidata": "Q3321241", "brand:wikipedia": "en:Monoprix", "name": "Monoprix", "opening_hours": "Mo-Sa 09:00-22:00", "operator": "Groupe Casino", "phone": "+33140353214", "shop": "supermarket", "toilets:wheelchair": "no", "website": "https://www.monoprix.fr/893.html", "wheelchair": "no"}}, {"type": "node", "id": 2306504642, "lat": 48.8917389, "lon": 2.3616331, "tags": {"addr:city": "Paris", "addr:housenumber": "8-10", "addr:postcode": "75018", "addr:street": "Rue de l'\u00c9vangile", "brand": "Paris Store", "name": "Paris Store", "opening_hours": "Tu-Fr 09:00-19:00; Sa 08:30-19:00; Su 08:30-12:00", "origin": "asian", "shop": "supermarket", "website": "https://paris-store.com/"}}, {"type": "node", "id": 2321297309, "lat": 48.8522672, "lon": 2.3651848, "tags": {"addr:housenumber": "16", "addr:postcode": "75004", "addr:street": "Rue de la Cerisaie", "brand": "Bio C' Bon", "brand:wikidata": "Q54312551", "brand:wikipedia": "fr:Bio c'bon", "bulk_purchase": "yes", "check_date": "2025-04-20", "check_date:opening_hours": "2025-04-20", "contact:facebook": "https://www.facebook.com/biocbonfrance/", "name": "Bio C' Bon", "opening_hours": "Mo-Sa 09:30-20:00; Su 09:30-13:00", "operator": "Bio C' Bon", "organic": "only", "shop": "supermarket", "website": "https://bio-c-bon.eu/fr/nos_magasins/bio-c-bon-paris-cerisaie", "wheelchair": "yes"}}, {"type": "node", "id": 2323522111, "lat": 48.8324931, "lon": 2.3156042, "tags": {"addr:housenumber": "117"}}, {"type": "node", "id": 2323522123, "lat": 48.8324139, "lon": 2.315459, "tags": {"addr:housenumber": "119"}}, {"type": "node", "id": 2347121437, "lat": 48.8892317, "lon": 2.335693, "tags": {"brand": "G20", "brand:wikidata": "Q3504731", "brand:wikipedia": "fr:Supermarch\u00e9s G20", "check_date": "2024-10-27", "name": "G20", "operator": "G20", "shop": "supermarket"}}, {"type": "node", "id": 2349484533, "lat": 48.8616611, "lon": 2.3677865, "tags": {"addr:city": "Paris", "addr:housenumber": "94", "addr:postcode": "75011", "addr:street": "Rue Amelot", "brand": "Carrefour Market", "brand:wikidata": "Q2689639", "brand:wikipedia": "fr:Carrefour Market", "check_date": "2025-09-12", "check_date:opening_hours": "2025-09-12", "level": "0", "name": "Carrefour Market", "opening_hours": "Mo-Sa 07:00-22:00; Su 09:00-13:00", "operator": "Carrefour", "payment:credit_cards": "yes", "phone": "+33 1 43 57 29 38", "shop": "supermarket", "website": "https://www.carrefour.fr/magasin/market-paris-amelot", "wheelchair": "yes"}}, {"type": "node", "id": 2392267923, "lat": 48.887126, "lon": 2.2704117, "tags": {"addr:housenumber": "34", "addr:postcode": "92200", "addr:street": "Rue de Ch\u00e9zy", "brand": "Franprix", "brand:wikidata": "Q2420096", "brand:wikipedia": "fr:Franprix", "check_date:opening_hours": "2021-06-17", "name": "Franprix", "opening_hours": "Mo-Sa 09:00-21:00; Su 09:00-13:00", "operator": "Groupe Casino", "shop": "supermarket"}}, {"type": "node", "id": 2393795715, "lat": 48.8756567, "lon": 2.392556, "tags": {"brand": "G20", "brand:wikidata": "Q3504731", "brand:wikipedia": "fr:Supermarch\u00e9s G20", "name": "G20", "opening_hours": "Mo-Sa 08:00-22:00; Su 09:00-22:00", "operator": "G20", "shop": "supermarket", "source": "survey:2013-07-22"}}, {"type": "node", "id": 2418753486, "lat": 48.9039539, "lon": 2.3204371, "tags": {"entrance": "yes", "name": "Centre Commercial E. Leclerc"}}, {"type": "node", "id": 2445444742, "lat": 48.8390536, "lon": 2.349477, "tags": {"branch": "La Ruche de Mouffetard", "brand": "Biocoop", "brand:wikidata": "Q2904039", "brand:wikipedia": "fr:Biocoop", "bulk_purchase": "yes", "contact:city": "Paris", "contact:housenumber": "3", "contact:phone": "+33 9 50 80 94 63", "contact:postcode": "75005", "contact:street": "Rue \u00c9douard Qu\u00e9nu", "contact:website": "http://ruchebiocoop.com/", "level": "0", "name": "Biocoop", "opening_hours": "Mo 16:00-20:00, Tu-Sa 10:00-20:00, Su 10:00-13:00", "organic": "only", "shop": "supermarket", "source": "survey", "toilets": "no", "wheelchair": "yes"}},